{
  "B66 4SL": {
    "lat": 52.487304,
    "lng": -1.952354,
    "region": "West Midlands",
    "admin_district": "Sandwell"
  },
  "BL4 0JR": {
    "lat": 53.553973,
    "lng": -2.429892,
    "region": "North West",
    "admin_district": "Bolton"
  },
  "S18 1PE": {
    "lat": 53.303354,
    "lng": -1.478897,
    "region": "East Midlands",
    "admin_district": "North East Derbyshire"
  },
  "IP3 8NS": {
    "lat": 52.044709,
    "lng": 1.197397,
    "region": "East of England",
    "admin_district": "Ipswich"
  },
  "EX36 4NL": {
    "lat": 50.947492,
    "lng": -3.762653,
    "region": "South West",
    "admin_district": "North Devon"
  },
  "SN4 9AX": {
    "lat": 51.525595,
    "lng": -1.795879,
    "region": "South West",
    "admin_district": "Swindon"
  },
  "PO1 3JG": {
    "lat": 50.80076,
    "lng": -1.101596,
    "region": "South East",
    "admin_district": "Portsmouth"
  },
  "BS16 2UU": {
    "lat": 51.498963,
    "lng": -2.522208,
    "region": "South West",
    "admin_district": "South Gloucestershire"
  },
  "LE4 7YJ": {
    "lat": 52.664503,
    "lng": -1.10302,
    "region": "East Midlands",
    "admin_district": "Leicester"
  },
  "TF3 1LB": null,
  "TF4 2AA": {
    "lat": 52.664337,
    "lng": -2.466779,
    "region": "West Midlands",
    "admin_district": "Telford and Wrekin"
  },
  "S73 8SU": {
    "lat": 53.539158,
    "lng": -1.413934,
    "region": "Yorkshire and The Humber",
    "admin_district": "Barnsley"
  },
  "RG31 6HS": {
    "lat": 51.462248,
    "lng": -1.037521,
    "region": "South East",
    "admin_district": "Reading"
  },
  "BL1 4NX": {
    "lat": 53.580606,
    "lng": -2.454147,
    "region": "North West",
    "admin_district": "Bolton"
  },
  "BH21 1AP": {
    "lat": 50.798102,
    "lng": -1.982744,
    "region": "South West",
    "admin_district": "Dorset"
  },
  "LE2 7HX": {
    "lat": 52.6286,
    "lng": -1.141192,
    "region": "East Midlands",
    "admin_district": "Leicester"
  },
  "RH17 6HB": {
    "lat": 51.060237,
    "lng": -0.201706,
    "region": "South East",
    "admin_district": "Mid Sussex"
  },
  "GU8 6DB": {
    "lat": 51.186125,
    "lng": -0.704739,
    "region": "South East",
    "admin_district": "Waverley"
  },
  "HD3 3XA": {
    "lat": 53.6571,
    "lng": -1.843553,
    "region": "Yorkshire and The Humber",
    "admin_district": "Kirklees"
  },
  "NE2 3RE": {
    "lat": 55.001761,
    "lng": -1.604956,
    "region": "North East",
    "admin_district": "Newcastle upon Tyne"
  },
  "BL9 9JN": {
    "lat": 53.584204,
    "lng": -2.292047,
    "region": "North West",
    "admin_district": "Bury"
  },
  "WF8 2SS": {
    "lat": 53.698633,
    "lng": -1.293004,
    "region": "Yorkshire and The Humber",
    "admin_district": "Wakefield"
  },
  "CV2 2HJ": {
    "lat": 52.420671,
    "lng": -1.444078,
    "region": "West Midlands",
    "admin_district": "Coventry"
  },
  "NE64 6DN": {
    "lat": 55.187373,
    "lng": -1.505637,
    "region": "North East",
    "admin_district": "Northumberland"
  },
  "IG10 4NX": {
    "lat": 51.644367,
    "lng": 0.054377,
    "region": "East of England",
    "admin_district": "Epping Forest"
  },
  "TA1 4EA": {
    "lat": 51.013483,
    "lng": -3.105811,
    "region": "South West",
    "admin_district": "Somerset"
  },
  "ST13 5HH": {
    "lat": 53.106274,
    "lng": -2.025111,
    "region": "West Midlands",
    "admin_district": "Staffordshire Moorlands"
  },
  "TW14 9AG": {
    "lat": 51.450858,
    "lng": -0.418695,
    "region": "London",
    "admin_district": "Hounslow"
  },
  "CB7 5JD": {
    "lat": 52.335206,
    "lng": 0.341974,
    "region": "East of England",
    "admin_district": "East Cambridgeshire"
  },
  "OL10 1DL": {
    "lat": 53.591138,
    "lng": -2.213415,
    "region": "North West",
    "admin_district": "Rochdale"
  },
  "NE31 1LR": {
    "lat": 54.970431,
    "lng": -1.521221,
    "region": "North East",
    "admin_district": "South Tyneside"
  },
  "LN6 9NW": {
    "lat": 53.181753,
    "lng": -0.622341,
    "region": "East Midlands",
    "admin_district": "North Kesteven"
  },
  "LA14 1LF": {
    "lat": 54.110679,
    "lng": -3.225657,
    "region": "North West",
    "admin_district": "Westmorland and Furness"
  },
  "W1D 2JE": {
    "lat": 51.515658,
    "lng": -0.136931,
    "region": "London",
    "admin_district": "Westminster"
  },
  "LE2 5AA": {
    "lat": 52.598995,
    "lng": -1.082196,
    "region": "East Midlands",
    "admin_district": "Oadby and Wigston"
  },
  "E2 9LY": {
    "lat": 51.53127,
    "lng": -0.05176,
    "region": "London",
    "admin_district": "Tower Hamlets"
  },
  "TQ9 6EU": {
    "lat": 50.440932,
    "lng": -3.697906,
    "region": "South West",
    "admin_district": "South Hams"
  },
  "YO8 8NJ": {
    "lat": 53.730168,
    "lng": -0.975891,
    "region": "Yorkshire and The Humber",
    "admin_district": "North Yorkshire"
  },
  "EN4 9JS": {
    "lat": 51.648332,
    "lng": -0.153958,
    "region": "London",
    "admin_district": "Barnet"
  },
  "TQ12 2AS": {
    "lat": 50.531899,
    "lng": -3.607755,
    "region": "South West",
    "admin_district": "Teignbridge"
  },
  "TN15 8RQ": {
    "lat": 51.290053,
    "lng": 0.303389,
    "region": "South East",
    "admin_district": "Tonbridge and Malling"
  },
  "ST6 7NN": {
    "lat": 53.057219,
    "lng": -2.175927,
    "region": "West Midlands",
    "admin_district": "Stoke-on-Trent"
  },
  "M16 7AP": {
    "lat": 53.455785,
    "lng": -2.253502,
    "region": "North West",
    "admin_district": "Manchester"
  },
  "B68 9LU": {
    "lat": 52.490046,
    "lng": -1.999788,
    "region": "West Midlands",
    "admin_district": "Sandwell"
  },
  "TS1 2RQ": {
    "lat": 54.575185,
    "lng": -1.22967,
    "region": "North East",
    "admin_district": "Middlesbrough"
  },
  "CM8 2AB": {
    "lat": 51.799191,
    "lng": 0.640893,
    "region": "East of England",
    "admin_district": "Braintree"
  },
  "ST7 1EL": {
    "lat": 53.093103,
    "lng": -2.237521,
    "region": "West Midlands",
    "admin_district": "Newcastle-under-Lyme"
  },
  "GL14 3AP": {
    "lat": 51.802803,
    "lng": -2.508209,
    "region": "South West",
    "admin_district": "Forest of Dean"
  },
  "TS15 9EH": {
    "lat": 54.494803,
    "lng": -1.349058,
    "region": "North East",
    "admin_district": "Stockton-on-Tees"
  },
  "SL2 1HD": {
    "lat": 51.53043,
    "lng": -0.617779,
    "region": "South East",
    "admin_district": "Slough"
  },
  "LA17 7TE": {
    "lat": 54.232419,
    "lng": -3.184683,
    "region": "North West",
    "admin_district": "Westmorland and Furness"
  },
  "BL8 2BX": {
    "lat": 53.58694,
    "lng": -2.321931,
    "region": "North West",
    "admin_district": "Bury"
  },
  "HG1 2BW": {
    "lat": 54.003404,
    "lng": -1.552849,
    "region": "Yorkshire and The Humber",
    "admin_district": "North Yorkshire"
  },
  "HU15 1XB": {
    "lat": 53.724149,
    "lng": -0.566806,
    "region": "Yorkshire and The Humber",
    "admin_district": "East Riding of Yorkshire"
  },
  "SO53 4SD": {
    "lat": 50.978788,
    "lng": -1.403529,
    "region": "South East",
    "admin_district": "Test Valley"
  },
  "BH18 9BP": {
    "lat": 50.761134,
    "lng": -2.012136,
    "region": "South West",
    "admin_district": "Dorset"
  },
  "S43 1AB": {
    "lat": 53.254477,
    "lng": -1.401353,
    "region": "East Midlands",
    "admin_district": "Chesterfield"
  },
  "RH15 0GY": {
    "lat": 50.959066,
    "lng": -0.113612,
    "region": "South East",
    "admin_district": "Mid Sussex"
  },
  "PO21 1LA": {
    "lat": 50.783372,
    "lng": -0.669793,
    "region": "South East",
    "admin_district": "Arun"
  },
  "SS14 2LX": {
    "lat": 51.574346,
    "lng": 0.471501,
    "region": "East of England",
    "admin_district": "Basildon"
  },
  "EN6 2SE": {
    "lat": 51.686136,
    "lng": -0.178666,
    "region": "East of England",
    "admin_district": "Hertsmere"
  },
  "BS22 6JE": {
    "lat": 51.360394,
    "lng": -2.926004,
    "region": "South West",
    "admin_district": "North Somerset"
  },
  "NW4 1AD": {
    "lat": 51.594168,
    "lng": -0.220634,
    "region": "London",
    "admin_district": "Barnet"
  },
  "NE3 4BB": {
    "lat": 55.000908,
    "lng": -1.625177,
    "region": "North East",
    "admin_district": "Newcastle upon Tyne"
  },
  "RG21 3EY": {
    "lat": 51.255143,
    "lng": -1.085745,
    "region": "South East",
    "admin_district": "Basingstoke and Deane"
  },
  "HA5 4PH": {
    "lat": 51.609043,
    "lng": -0.374557,
    "region": "London",
    "admin_district": "Harrow"
  },
  "SO41 0GF": {
    "lat": 50.756984,
    "lng": -1.626026,
    "region": "South East",
    "admin_district": "New Forest"
  },
  "IP3 9BN": {
    "lat": 52.047633,
    "lng": 1.185105,
    "region": "East of England",
    "admin_district": "Ipswich"
  },
  "DE24 9EE": {
    "lat": 52.88011,
    "lng": -1.445211,
    "region": "East Midlands",
    "admin_district": "Derby"
  },
  "NG22 9AD": {
    "lat": 53.200641,
    "lng": -1.021753,
    "region": "East Midlands",
    "admin_district": "Newark and Sherwood"
  },
  "DY1 2QF": {
    "lat": 52.512089,
    "lng": -2.102726,
    "region": "West Midlands",
    "admin_district": "Dudley"
  },
  "SK4 5BF": {
    "lat": 53.433068,
    "lng": -2.186597,
    "region": "North West",
    "admin_district": "Stockport"
  },
  "PL26 6AZ": {
    "lat": 50.316996,
    "lng": -4.773233,
    "region": "South West",
    "admin_district": "Cornwall"
  },
  "CR3 5RD": {
    "lat": 51.284941,
    "lng": -0.090166,
    "region": "South East",
    "admin_district": "Tandridge"
  },
  "SR6 9NS": {
    "lat": 54.930498,
    "lng": -1.368028,
    "region": "North East",
    "admin_district": "Sunderland"
  },
  "SW9 0NH": {
    "lat": 51.4743,
    "lng": -0.113301,
    "region": "London",
    "admin_district": "Lambeth"
  },
  "TN21 0HF": {
    "lat": 50.934385,
    "lng": 0.253375,
    "region": "South East",
    "admin_district": "Wealden"
  },
  "S40 1NP": {
    "lat": 53.237084,
    "lng": -1.43829,
    "region": "East Midlands",
    "admin_district": "Chesterfield"
  },
  "NE4 6SS": {
    "lat": 54.968352,
    "lng": -1.643722,
    "region": "North East",
    "admin_district": "Newcastle upon Tyne"
  },
  "LA5 0AW": {
    "lat": 54.197096,
    "lng": -2.835501,
    "region": "North West",
    "admin_district": "Westmorland and Furness"
  },
  "LN13 0NG": {
    "lat": 53.316682,
    "lng": 0.13977,
    "region": "East Midlands",
    "admin_district": "East Lindsey"
  },
  "NR17 1AA": {
    "lat": 52.512264,
    "lng": 1.00053,
    "region": "East of England",
    "admin_district": "Breckland"
  },
  "BL9 0NJ": {
    "lat": 53.595546,
    "lng": -2.288589,
    "region": "North West",
    "admin_district": "Bury"
  },
  "S40 4AA": {
    "lat": 53.23846,
    "lng": -1.438541,
    "region": "East Midlands",
    "admin_district": "Chesterfield"
  },
  "B33 8EJ": {
    "lat": 52.48389,
    "lng": -1.80584,
    "region": "West Midlands",
    "admin_district": "Birmingham"
  },
  "B71 1PP": {
    "lat": 52.528343,
    "lng": -1.991004,
    "region": "West Midlands",
    "admin_district": "Sandwell"
  },
  "BB5 5AD": {
    "lat": 53.761477,
    "lng": -2.369941,
    "region": "North West",
    "admin_district": "Hyndburn"
  },
  "CH45 7QF": {
    "lat": 53.424899,
    "lng": -3.036053,
    "region": "North West",
    "admin_district": "Wirral"
  },
  "SS16 6HY": {
    "lat": 51.552253,
    "lng": 0.420867,
    "region": "East of England",
    "admin_district": "Basildon"
  },
  "WN7 1AZ": {
    "lat": 53.497724,
    "lng": -2.513846,
    "region": "North West",
    "admin_district": "Wigan"
  },
  "IG8 0BF": {
    "lat": 51.610691,
    "lng": 0.025298,
    "region": "London",
    "admin_district": "Redbridge"
  },
  "ST16 2RS": {
    "lat": 52.817306,
    "lng": -2.12348,
    "region": "West Midlands",
    "admin_district": "Stafford"
  },
  "B24 9JN": {
    "lat": 52.528655,
    "lng": -1.831998,
    "region": "West Midlands",
    "admin_district": "Birmingham"
  },
  "GU15 3HL": {
    "lat": 51.335613,
    "lng": -0.761788,
    "region": "South East",
    "admin_district": "Surrey Heath"
  },
  "DN22 7JJ": {
    "lat": 53.304172,
    "lng": -0.930836,
    "region": "East Midlands",
    "admin_district": "Bassetlaw"
  },
  "GL53 9PQ": {
    "lat": 51.798291,
    "lng": -2.048959,
    "region": "South West",
    "admin_district": "Cotswold"
  },
  "SW8 3RX": {
    "lat": 51.466912,
    "lng": -0.150233,
    "region": "London",
    "admin_district": "Lambeth"
  },
  "BR7 5EL": {
    "lat": 51.422395,
    "lng": 0.049455,
    "region": "London",
    "admin_district": "Bromley"
  },
  "SP2 0JU": {
    "lat": 51.077871,
    "lng": -1.865859,
    "region": "South West",
    "admin_district": "Wiltshire"
  },
  "WA8 0RR": {
    "lat": 53.365996,
    "lng": -2.71329,
    "region": "North West",
    "admin_district": "Halton"
  },
  "AL1 1ER": {
    "lat": 51.750395,
    "lng": -0.339456,
    "region": "East of England",
    "admin_district": "St Albans"
  },
  "FY7 6LQ": {
    "lat": 53.922718,
    "lng": -3.016223,
    "region": "North West",
    "admin_district": "Wyre"
  },
  "BN14 0SE": {
    "lat": 50.867423,
    "lng": -0.406195,
    "region": "South East",
    "admin_district": "Arun"
  },
  "DY11 6RJ": {
    "lat": 52.386056,
    "lng": -2.261161,
    "region": "West Midlands",
    "admin_district": "Wyre Forest"
  },
  "EN6 2DP": {
    "lat": 51.69738,
    "lng": -0.20225,
    "region": "East of England",
    "admin_district": "Hertsmere"
  },
  "SN11 9DD": {
    "lat": 51.443938,
    "lng": -2.006951,
    "region": "South West",
    "admin_district": "Wiltshire"
  },
  "BD16 1TW": {
    "lat": 53.832269,
    "lng": -1.818106,
    "region": "Yorkshire and The Humber",
    "admin_district": "Bradford"
  },
  "S2 5QQ": {
    "lat": 53.377787,
    "lng": -1.454224,
    "region": "Yorkshire and The Humber",
    "admin_district": "Sheffield"
  },
  "BR7 6PE": {
    "lat": 51.411386,
    "lng": 0.082195,
    "region": "London",
    "admin_district": "Bromley"
  },
  "ME4 6HY": {
    "lat": 51.367133,
    "lng": 0.519748,
    "region": "South East",
    "admin_district": "Medway"
  },
  "ME3 8AL": {
    "lat": 51.411436,
    "lng": 0.506694,
    "region": "South East",
    "admin_district": "Medway"
  },
  "SM2 5JX": {
    "lat": 51.357909,
    "lng": -0.180036,
    "region": "London",
    "admin_district": "Sutton"
  },
  "CA14 2JD": {
    "lat": 54.645955,
    "lng": -3.562718,
    "region": "North West",
    "admin_district": "Cumberland"
  },
  "LS7 2PS": {
    "lat": 53.832356,
    "lng": -1.557345,
    "region": "Yorkshire and The Humber",
    "admin_district": "Leeds"
  },
  "SS1 2PQ": {
    "lat": 51.540402,
    "lng": 0.723853,
    "region": "East of England",
    "admin_district": "Southend-on-Sea"
  },
  "TN28 8NH": {
    "lat": 50.982752,
    "lng": 0.963435,
    "region": "South East",
    "admin_district": "Folkestone and Hythe"
  },
  "SR2 0HG": {
    "lat": 54.870071,
    "lng": -1.364315,
    "region": "North East",
    "admin_district": "Sunderland"
  },
  "NW10 7PN": {
    "lat": 51.537447,
    "lng": -0.284334,
    "region": "London",
    "admin_district": "Ealing"
  },
  "CV37 6HJ": {
    "lat": 52.194836,
    "lng": -1.712721,
    "region": "West Midlands",
    "admin_district": "Stratford-on-Avon"
  },
  "CB23 8AR": {
    "lat": 52.223817,
    "lng": 0.000987,
    "region": "East of England",
    "admin_district": "South Cambridgeshire"
  },
  "CT16 3DB": {
    "lat": 51.151284,
    "lng": 1.271884,
    "region": "South East",
    "admin_district": "Dover"
  },
  "SN5 8SX": {
    "lat": 51.553556,
    "lng": -1.821831,
    "region": "South West",
    "admin_district": "Swindon"
  },
  "LN4 2TS": {
    "lat": 53.195519,
    "lng": -0.532876,
    "region": "East Midlands",
    "admin_district": "North Kesteven"
  },
  "BS4 5DF": {
    "lat": 51.427789,
    "lng": -2.550667,
    "region": "South West",
    "admin_district": "Bristol, City of"
  },
  "CT6 7GQ": {
    "lat": 51.35873,
    "lng": 1.131623,
    "region": "South East",
    "admin_district": "Canterbury"
  },
  "LS9 6AU": {
    "lat": 53.808932,
    "lng": -1.50652,
    "region": "Yorkshire and The Humber",
    "admin_district": "Leeds"
  },
  "WR9 0EL": {
    "lat": 52.276568,
    "lng": -2.229019,
    "region": "West Midlands",
    "admin_district": "Wychavon"
  },
  "BN2 3HP": {
    "lat": 50.832576,
    "lng": -0.129394,
    "region": "South East",
    "admin_district": "Brighton and Hove"
  },
  "WR14 3NA": {
    "lat": 52.107546,
    "lng": -2.307464,
    "region": "West Midlands",
    "admin_district": "Malvern Hills"
  },
  "B26 2DU": {
    "lat": 52.46482,
    "lng": -1.778532,
    "region": "West Midlands",
    "admin_district": "Birmingham"
  },
  "NE24 4LH": {
    "lat": 55.128615,
    "lng": -1.547436,
    "region": "North East",
    "admin_district": "Northumberland"
  },
  "RH19 3TX": {
    "lat": 51.123826,
    "lng": 0.001415,
    "region": "South East",
    "admin_district": "Mid Sussex"
  },
  "SN4 7AQ": {
    "lat": 51.54314,
    "lng": -1.902884,
    "region": "South West",
    "admin_district": "Wiltshire"
  },
  "OX3 9NX": {
    "lat": 51.763527,
    "lng": -1.194681,
    "region": "South East",
    "admin_district": "Oxford"
  },
  "BN1 6JJ": {
    "lat": 50.846344,
    "lng": -0.135549,
    "region": "South East",
    "admin_district": "Brighton and Hove"
  },
  "CA25 5AN": {
    "lat": 54.521747,
    "lng": -3.515126,
    "region": "North West",
    "admin_district": "Cumberland"
  },
  "HP21 8JA": {
    "lat": 51.806738,
    "lng": -0.813187,
    "region": "South East",
    "admin_district": "Buckinghamshire"
  },
  "CT9 4AN": {
    "lat": 51.378059,
    "lng": 1.389411,
    "region": "South East",
    "admin_district": "Thanet"
  },
  "W1G 8GF": {
    "lat": 51.518388,
    "lng": -0.148062,
    "region": "London",
    "admin_district": "Westminster"
  },
  "OX17 2NZ": {
    "lat": 52.074801,
    "lng": -1.273491,
    "region": "East Midlands",
    "admin_district": "West Northamptonshire"
  },
  "IG10 4BL": {
    "lat": 51.646594,
    "lng": 0.0515,
    "region": "East of England",
    "admin_district": "Epping Forest"
  },
  "NR27 9LT": {
    "lat": 52.932324,
    "lng": 1.245472,
    "region": "East of England",
    "admin_district": "North Norfolk"
  },
  "B37 7HT": {
    "lat": 52.469314,
    "lng": -1.730416,
    "region": "West Midlands",
    "admin_district": "Solihull"
  },
  "CM13 3FR": {
    "lat": 51.605087,
    "lng": 0.297464,
    "region": "East of England",
    "admin_district": "Brentwood"
  },
  "TW18 1UG": {
    "lat": 51.407418,
    "lng": -0.491209,
    "region": "South East",
    "admin_district": "Spelthorne"
  },
  "W1G 9HN": {
    "lat": 51.518163,
    "lng": -0.145188,
    "region": "London",
    "admin_district": "Westminster"
  },
  "NN15 6UB": {
    "lat": 52.378066,
    "lng": -0.696629,
    "region": "East Midlands",
    "admin_district": "North Northamptonshire"
  },
  "B44 8BG": {
    "lat": 52.532091,
    "lng": -1.895493,
    "region": "West Midlands",
    "admin_district": "Birmingham"
  },
  "CV34 4JA": {
    "lat": 52.282899,
    "lng": -1.583416,
    "region": "West Midlands",
    "admin_district": "Warwick"
  },
  "WR9 7BH": {
    "lat": 52.261177,
    "lng": -2.150595,
    "region": "West Midlands",
    "admin_district": "Wychavon"
  },
  "NR3 2HW": {
    "lat": 52.643945,
    "lng": 1.285679,
    "region": "East of England",
    "admin_district": "Norwich"
  },
  "SL1 4PG": {
    "lat": 51.521123,
    "lng": -0.624706,
    "region": "South East",
    "admin_district": "Slough"
  },
  "PL3 4DA": {
    "lat": 50.384312,
    "lng": -4.160973,
    "region": "South West",
    "admin_district": "Plymouth"
  },
  "TS18 3TX": {
    "lat": 54.545371,
    "lng": -1.322206,
    "region": "North East",
    "admin_district": "Stockton-on-Tees"
  },
  "TN35 5DG": {
    "lat": 50.87479,
    "lng": 0.610384,
    "region": "South East",
    "admin_district": "Hastings"
  },
  "PO32 6RP": {
    "lat": 50.757449,
    "lng": -1.28618,
    "region": "South East",
    "admin_district": "Isle of Wight"
  },
  "DN15 6JH": {
    "lat": 53.587733,
    "lng": -0.64944,
    "region": "Yorkshire and The Humber",
    "admin_district": "North Lincolnshire"
  },
  "NR11 6LZ": {
    "lat": 52.794045,
    "lng": 1.239095,
    "region": "East of England",
    "admin_district": "Broadland"
  },
  "FY2 9JT": {
    "lat": 53.848093,
    "lng": -3.052189,
    "region": "North West",
    "admin_district": "Blackpool"
  },
  "PO33 2NN": {
    "lat": 50.729622,
    "lng": -1.166422,
    "region": "South East",
    "admin_district": "Isle of Wight"
  },
  "HG4 2AX": {
    "lat": 54.136385,
    "lng": -1.527191,
    "region": "Yorkshire and The Humber",
    "admin_district": "North Yorkshire"
  },
  "B12 8JU": {
    "lat": 52.455271,
    "lng": -1.876926,
    "region": "West Midlands",
    "admin_district": "Birmingham"
  },
  "SL2 3ED": {
    "lat": 51.546443,
    "lng": -0.617668,
    "region": "South East",
    "admin_district": "Buckinghamshire"
  },
  "TW16 6RX": {
    "lat": 51.417402,
    "lng": -0.418339,
    "region": "South East",
    "admin_district": "Spelthorne"
  },
  "CW1 5QZ": {
    "lat": 53.098315,
    "lng": -2.393824,
    "region": "North West",
    "admin_district": "Cheshire East"
  },
  "SP11 6RU": {
    "lat": 51.223051,
    "lng": -1.4409,
    "region": "South East",
    "admin_district": "Test Valley"
  },
  "ST8 7PS": {
    "lat": 53.094508,
    "lng": -2.179827,
    "region": "West Midlands",
    "admin_district": "Staffordshire Moorlands"
  },
  "DE55 7AN": {
    "lat": 53.092252,
    "lng": -1.399574,
    "region": "East Midlands",
    "admin_district": "Amber Valley"
  },
  "BS23 1XE": {
    "lat": 51.343407,
    "lng": -2.976962,
    "region": "South West",
    "admin_district": "North Somerset"
  },
  "S71 1HT": {
    "lat": 53.550133,
    "lng": -1.450005,
    "region": "Yorkshire and The Humber",
    "admin_district": "Barnsley"
  },
  "SS12 9DG": {
    "lat": 51.607177,
    "lng": 0.52327,
    "region": "East of England",
    "admin_district": "Basildon"
  },
  "NR20 3AX": {
    "lat": 52.679491,
    "lng": 0.957639,
    "region": "East of England",
    "admin_district": "Breckland"
  },
  "SM7 1HL": {
    "lat": 51.326428,
    "lng": -0.215816,
    "region": "South East",
    "admin_district": "Reigate and Banstead"
  },
  "TN40 1EU": {
    "lat": 50.840237,
    "lng": 0.474845,
    "region": "South East",
    "admin_district": "Rother"
  },
  "B32 2AL": {
    "lat": 52.465098,
    "lng": -1.987056,
    "region": "West Midlands",
    "admin_district": "Birmingham"
  },
  "IG10 4HT": {
    "lat": 51.644254,
    "lng": 0.051596,
    "region": "East of England",
    "admin_district": "Epping Forest"
  },
  "FY2 9TW": {
    "lat": 53.838712,
    "lng": -3.047836,
    "region": "North West",
    "admin_district": "Blackpool"
  },
  "NE33 5HW": {
    "lat": 54.982133,
    "lng": -1.439564,
    "region": "North East",
    "admin_district": "South Tyneside"
  },
  "SS9 1BG": {
    "lat": 51.540928,
    "lng": 0.662155,
    "region": "East of England",
    "admin_district": "Southend-on-Sea"
  },
  "S75 5PE": {
    "lat": 53.579717,
    "lng": -1.535743,
    "region": "Yorkshire and The Humber",
    "admin_district": "Barnsley"
  },
  "LN8 6ED": {
    "lat": 53.427684,
    "lng": -0.178899,
    "region": "East Midlands",
    "admin_district": "East Lindsey"
  },
  "CR0 3QU": {
    "lat": 51.388186,
    "lng": -0.114431,
    "region": "London",
    "admin_district": "Croydon"
  },
  "HD2 1BQ": {
    "lat": 53.677896,
    "lng": -1.746757,
    "region": "Yorkshire and The Humber",
    "admin_district": "Kirklees"
  },
  "SW16 6HX": {
    "lat": 51.423757,
    "lng": -0.130486,
    "region": "London",
    "admin_district": "Lambeth"
  },
  "L8 5XW": {
    "lat": 53.391191,
    "lng": -2.973011,
    "region": "North West",
    "admin_district": "Liverpool"
  },
  "M22 4RY": {
    "lat": 53.390555,
    "lng": -2.253656,
    "region": "North West",
    "admin_district": "Manchester"
  },
  "SK1 3XE": {
    "lat": 53.405991,
    "lng": -2.158486,
    "region": "North West",
    "admin_district": "Stockport"
  },
  "SG18 0EL": {
    "lat": 52.100321,
    "lng": -0.24686,
    "region": "East of England",
    "admin_district": "Central Bedfordshire"
  },
  "BS23 3SJ": {
    "lat": 51.331294,
    "lng": -2.965121,
    "region": "South West",
    "admin_district": "North Somerset"
  },
  "BS48 1BZ": {
    "lat": 51.43306,
    "lng": -2.755364,
    "region": "South West",
    "admin_district": "North Somerset"
  },
  "B63 3UH": {
    "lat": 52.454096,
    "lng": -2.063006,
    "region": "West Midlands",
    "admin_district": "Dudley"
  },
  "HA8 7EJ": {
    "lat": 51.61036,
    "lng": -0.278395,
    "region": "London",
    "admin_district": "Barnet"
  },
  "NG4 3AX": {
    "lat": 52.967011,
    "lng": -1.079772,
    "region": "East Midlands",
    "admin_district": "Gedling"
  },
  "HP2 5BP": {
    "lat": 51.755952,
    "lng": -0.469869,
    "region": "East of England",
    "admin_district": "Dacorum"
  },
  "WR5 1SP": {
    "lat": 52.195035,
    "lng": -2.187153,
    "region": "West Midlands",
    "admin_district": "Worcester"
  },
  "PL5 3QB": {
    "lat": 50.411817,
    "lng": -4.159523,
    "region": "South West",
    "admin_district": "Plymouth"
  },
  "PE30 4EZ": {
    "lat": 52.758809,
    "lng": 0.421575,
    "region": "East of England",
    "admin_district": "King's Lynn and West Norfolk"
  },
  "S6 6GJ": {
    "lat": 53.387034,
    "lng": -1.61545,
    "region": "Yorkshire and The Humber",
    "admin_district": "Sheffield"
  },
  "BS49 4LJ": {
    "lat": 51.388539,
    "lng": -2.796438,
    "region": "South West",
    "admin_district": "North Somerset"
  },
  "PO1 3EZ": {
    "lat": 50.796074,
    "lng": -1.102693,
    "region": "South East",
    "admin_district": "Portsmouth"
  },
  "HX3 7RG": {
    "lat": 53.760733,
    "lng": -1.806129,
    "region": "Yorkshire and The Humber",
    "admin_district": "Calderdale"
  },
  "N13 4XE": {
    "lat": 51.616318,
    "lng": -0.109787,
    "region": "London",
    "admin_district": "Enfield"
  },
  "N11 2JH": {
    "lat": 51.614281,
    "lng": -0.125225,
    "region": "London",
    "admin_district": "Enfield"
  },
  "WN3 6JN": {
    "lat": 53.521306,
    "lng": -2.668959,
    "region": "North West",
    "admin_district": "Wigan"
  },
  "B21 9RY": {
    "lat": 52.503109,
    "lng": -1.934939,
    "region": "West Midlands",
    "admin_district": "Birmingham"
  },
  "HA8 9NT": {
    "lat": 51.61618,
    "lng": -0.260263,
    "region": "London",
    "admin_district": "Barnet"
  },
  "RM16 2AP": {
    "lat": 51.497622,
    "lng": 0.3292,
    "region": "East of England",
    "admin_district": "Thurrock"
  },
  "SY8 1QT": {
    "lat": 52.372424,
    "lng": -2.71146,
    "region": "West Midlands",
    "admin_district": "Shropshire"
  },
  "B12 0YA": {
    "lat": 52.46438,
    "lng": -1.887455,
    "region": "West Midlands",
    "admin_district": "Birmingham"
  },
  "TA1 5EE": {
    "lat": 51.017706,
    "lng": -3.135252,
    "region": "South West",
    "admin_district": "Somerset"
  },
  "ME4 5ND": {
    "lat": 51.373129,
    "lng": 0.533182,
    "region": "South East",
    "admin_district": "Medway"
  },
  "CV2 3NF": {
    "lat": 52.419549,
    "lng": -1.469898,
    "region": "West Midlands",
    "admin_district": "Coventry"
  },
  "LE2 3HD": {
    "lat": 52.612868,
    "lng": -1.107176,
    "region": "East Midlands",
    "admin_district": "Leicester"
  },
  "ME7 4HH": {
    "lat": 51.381108,
    "lng": 0.55383,
    "region": "South East",
    "admin_district": "Medway"
  },
  "DH3 2QT": {
    "lat": 54.891889,
    "lng": -1.576453,
    "region": "North East",
    "admin_district": "Gateshead"
  },
  "DN8 4AG": {
    "lat": 53.614039,
    "lng": -0.963724,
    "region": "Yorkshire and The Humber",
    "admin_district": "Doncaster"
  },
  "NE24 2BU": {
    "lat": 55.126819,
    "lng": -1.506212,
    "region": "North East",
    "admin_district": "Northumberland"
  },
  "HP18 1BB": {
    "lat": 51.836119,
    "lng": -0.850078,
    "region": "South East",
    "admin_district": "Buckinghamshire"
  },
  "BS48 1RB": {
    "lat": 51.432326,
    "lng": -2.758992,
    "region": "South West",
    "admin_district": "North Somerset"
  },
  "WA15 8SN": {
    "lat": 53.371785,
    "lng": -2.317886,
    "region": "North West",
    "admin_district": "Trafford"
  },
  "W5 2DD": {
    "lat": 51.517783,
    "lng": -0.309345,
    "region": "London",
    "admin_district": "Ealing"
  },
  "OX28 1HY": {
    "lat": 51.78994,
    "lng": -1.481707,
    "region": "South East",
    "admin_district": "West Oxfordshire"
  },
  "EX2 5JJ": {
    "lat": 50.715118,
    "lng": -3.508089,
    "region": "South West",
    "admin_district": "Exeter"
  },
  "DH9 0DU": {
    "lat": 54.873331,
    "lng": -1.696435,
    "region": "North East",
    "admin_district": "County Durham"
  },
  "CT2 0EF": {
    "lat": 51.304473,
    "lng": 1.130307,
    "region": "South East",
    "admin_district": "Canterbury"
  },
  "OL9 7QW": {
    "lat": 53.537154,
    "lng": -2.132978,
    "region": "North West",
    "admin_district": "Oldham"
  },
  "TN40 2HF": {
    "lat": 50.846546,
    "lng": 0.479313,
    "region": "South East",
    "admin_district": "Rother"
  },
  "UB9 5DE": {
    "lat": 51.586267,
    "lng": -0.510985,
    "region": "South East",
    "admin_district": "Buckinghamshire"
  },
  "SE13 7AF": {
    "lat": 51.458681,
    "lng": -0.018031,
    "region": "London",
    "admin_district": "Lewisham"
  },
  "NG17 1ES": {
    "lat": 53.122857,
    "lng": -1.267335,
    "region": "East Midlands",
    "admin_district": "Ashfield"
  },
  "SO31 7FD": {
    "lat": 50.876447,
    "lng": -1.284192,
    "region": "South East",
    "admin_district": "Fareham"
  },
  "RG12 1RB": {
    "lat": 51.415347,
    "lng": -0.775425,
    "region": "South East",
    "admin_district": "Bracknell Forest"
  },
  "ST4 4BX": {
    "lat": 52.997063,
    "lng": -2.188242,
    "region": "West Midlands",
    "admin_district": "Stoke-on-Trent"
  },
  "EX2 7HU": {
    "lat": 50.715315,
    "lng": -3.468729,
    "region": "South West",
    "admin_district": "Exeter"
  },
  "DE24 8WZ": {
    "lat": 52.907448,
    "lng": -1.455226,
    "region": "East Midlands",
    "admin_district": "Derby"
  },
  "WS5 4PW": {
    "lat": 52.561253,
    "lng": -1.976688,
    "region": "West Midlands",
    "admin_district": "Walsall"
  },
  "DE73 5XE": {
    "lat": 52.867668,
    "lng": -1.448964,
    "region": "East Midlands",
    "admin_district": "Derby"
  },
  "SE20 7HB": {
    "lat": 51.416219,
    "lng": -0.055736,
    "region": "London",
    "admin_district": "Bromley"
  },
  "CB22 3HJ": {
    "lat": 52.119797,
    "lng": 0.16887,
    "region": "East of England",
    "admin_district": "South Cambridgeshire"
  },
  "PR8 2BP": {
    "lat": 53.641503,
    "lng": -3.020101,
    "region": "North West",
    "admin_district": "Sefton"
  },
  "GU14 6BN": {
    "lat": 51.279382,
    "lng": -0.749721,
    "region": "South East",
    "admin_district": "Rushmoor"
  },
  "YO8 8DA": {
    "lat": 53.779449,
    "lng": -1.057856,
    "region": "Yorkshire and The Humber",
    "admin_district": "North Yorkshire"
  },
  "W1G 9ST": {
    "lat": 51.517411,
    "lng": -0.147713,
    "region": "London",
    "admin_district": "Westminster"
  },
  "GL2 9WH": {
    "lat": 51.880445,
    "lng": -2.242427,
    "region": "South West",
    "admin_district": "Gloucester"
  },
  "SW9 9EZ": {
    "lat": 51.470229,
    "lng": -0.122411,
    "region": "London",
    "admin_district": "Lambeth"
  },
  "TQ12 1HL": {
    "lat": 50.524933,
    "lng": -3.607476,
    "region": "South West",
    "admin_district": "Teignbridge"
  },
  "SL9 9RR": {
    "lat": 51.607788,
    "lng": -0.558024,
    "region": "South East",
    "admin_district": "Buckinghamshire"
  },
  "BN21 2AQ": {
    "lat": 50.772445,
    "lng": 0.277709,
    "region": "South East",
    "admin_district": "Eastbourne"
  },
  "SY4 4BY": {
    "lat": 52.763797,
    "lng": -2.674653,
    "region": "West Midlands",
    "admin_district": "Shropshire"
  },
  "M11 1WF": {
    "lat": 53.471787,
    "lng": -2.164411,
    "region": "North West",
    "admin_district": "Manchester"
  },
  "WS14 0HG": {
    "lat": 52.630684,
    "lng": -1.853697,
    "region": "West Midlands",
    "admin_district": "Lichfield"
  },
  "NE48 1BS": {
    "lat": 55.164729,
    "lng": -2.531766,
    "region": "North East",
    "admin_district": "Northumberland"
  },
  "B20 1EA": {
    "lat": 52.526256,
    "lng": -1.931766,
    "region": "West Midlands",
    "admin_district": "Birmingham"
  },
  "EX16 6NU": {
    "lat": 50.903518,
    "lng": -3.489266,
    "region": "South West",
    "admin_district": "Mid Devon"
  },
  "SP1 2EB": {
    "lat": 51.065837,
    "lng": -1.795009,
    "region": "South West",
    "admin_district": "Wiltshire"
  },
  "DA1 2DE": {
    "lat": 51.444966,
    "lng": 0.216065,
    "region": "South East",
    "admin_district": "Dartford"
  },
  "NE32 5AG": {
    "lat": 54.978075,
    "lng": -1.491507,
    "region": "North East",
    "admin_district": "South Tyneside"
  },
  "NN2 6JA": {
    "lat": 52.249624,
    "lng": -0.89408,
    "region": "East Midlands",
    "admin_district": "West Northamptonshire"
  },
  "SY2 5PE": {
    "lat": 52.706051,
    "lng": -2.725519,
    "region": "West Midlands",
    "admin_district": "Shropshire"
  },
  "OL8 4QQ": {
    "lat": 53.525376,
    "lng": -2.135883,
    "region": "North West",
    "admin_district": "Oldham"
  },
  "B91 1BD": {
    "lat": 52.425736,
    "lng": -1.796227,
    "region": "West Midlands",
    "admin_district": "Solihull"
  },
  "DN7 5HH": {
    "lat": 53.590522,
    "lng": -1.025546,
    "region": "Yorkshire and The Humber",
    "admin_district": "Doncaster"
  },
  "WR8 9EF": {
    "lat": 52.121458,
    "lng": -2.180446,
    "region": "West Midlands",
    "admin_district": "Wychavon"
  },
  "SN12 6ES": {
    "lat": 51.370986,
    "lng": -2.139422,
    "region": "South West",
    "admin_district": "Wiltshire"
  },
  "TS21 3LB": {
    "lat": 54.596722,
    "lng": -1.384503,
    "region": "North East",
    "admin_district": "Stockton-on-Tees"
  },
  "OX4 6BZ": {
    "lat": 51.726498,
    "lng": -1.194355,
    "region": "South East",
    "admin_district": "Oxford"
  },
  "S41 0EU": {
    "lat": 53.224103,
    "lng": -1.411933,
    "region": "East Midlands",
    "admin_district": "Chesterfield"
  },
  "SS9 3HP": {
    "lat": 51.551192,
    "lng": 0.665264,
    "region": "East of England",
    "admin_district": "Southend-on-Sea"
  },
  "HA8 5QL": {
    "lat": 51.597639,
    "lng": -0.278615,
    "region": "London",
    "admin_district": "Harrow"
  },
  "B31 3QW": {
    "lat": 52.398261,
    "lng": -1.961531,
    "region": "West Midlands",
    "admin_district": "Birmingham"
  },
  "ME4 6BA": {
    "lat": 51.382409,
    "lng": 0.520745,
    "region": "South East",
    "admin_district": "Medway"
  },
  "SS1 2FS": {
    "lat": 51.540638,
    "lng": 0.72104,
    "region": "East of England",
    "admin_district": "Southend-on-Sea"
  },
  "DE11 9HZ": {
    "lat": 52.755377,
    "lng": -1.580547,
    "region": "East Midlands",
    "admin_district": "South Derbyshire"
  },
  "NW1 3QT": {
    "lat": 51.528392,
    "lng": -0.14261,
    "region": "London",
    "admin_district": "Camden"
  },
  "SW18 4DD": {
    "lat": 51.453708,
    "lng": -0.192163,
    "region": "London",
    "admin_district": "Wandsworth"
  },
  "EN6 3DQ": {
    "lat": 51.705981,
    "lng": -0.20492,
    "region": "East of England",
    "admin_district": "Hertsmere"
  },
  "GL4 6SB": {
    "lat": 51.840952,
    "lng": -2.24027,
    "region": "South West",
    "admin_district": "Gloucester"
  },
  "B70 9PX": {
    "lat": 52.518894,
    "lng": -2.012787,
    "region": "West Midlands",
    "admin_district": "Sandwell"
  },
  "SE14 5HD": {
    "lat": 51.474264,
    "lng": -0.047409,
    "region": "London",
    "admin_district": "Lewisham"
  },
  "ST15 8YE": {
    "lat": 52.899959,
    "lng": -2.143756,
    "region": "West Midlands",
    "admin_district": "Stafford"
  },
  "DE15 0LB": {
    "lat": 52.80433,
    "lng": -1.61372,
    "region": "West Midlands",
    "admin_district": "East Staffordshire"
  },
  "TQ10 9JN": {
    "lat": 50.425212,
    "lng": -3.830645,
    "region": "South West",
    "admin_district": "South Hams"
  },
  "WR10 1PD": {
    "lat": 52.11954,
    "lng": -2.075864,
    "region": "West Midlands",
    "admin_district": "Wychavon"
  },
  "BN17 7BY": {
    "lat": 50.811128,
    "lng": -0.544237,
    "region": "South East",
    "admin_district": "Arun"
  },
  "BH5 1HD": {
    "lat": 50.725554,
    "lng": -1.837738,
    "region": "South West",
    "admin_district": "Bournemouth, Christchurch and Poole"
  },
  "SO15 3JD": {
    "lat": 50.919395,
    "lng": -1.429257,
    "region": "South East",
    "admin_district": "Southampton"
  },
  "N3 1QB": {
    "lat": 51.60249,
    "lng": -0.193306,
    "region": "London",
    "admin_district": "Barnet"
  },
  "LS22 6JS": {
    "lat": 53.931036,
    "lng": -1.378871,
    "region": "Yorkshire and The Humber",
    "admin_district": "Leeds"
  },
  "L36 6DS": {
    "lat": 53.417495,
    "lng": -2.830985,
    "region": "North West",
    "admin_district": "Knowsley"
  },
  "MK44 1PB": {
    "lat": 52.226338,
    "lng": -0.544546,
    "region": "East of England",
    "admin_district": "Bedford"
  },
  "LE3 0LP": {
    "lat": 52.631351,
    "lng": -1.15358,
    "region": "East Midlands",
    "admin_district": "Leicester"
  },
  "B93 0AL": {
    "lat": 52.381885,
    "lng": -1.699991,
    "region": "West Midlands",
    "admin_district": "Solihull"
  },
  "NG12 2NL": {
    "lat": 52.944639,
    "lng": -1.006388,
    "region": "East Midlands",
    "admin_district": "Rushcliffe"
  },
  "AL7 1HG": {
    "lat": 51.802406,
    "lng": -0.191417,
    "region": "East of England",
    "admin_district": "Welwyn Hatfield"
  },
  "SP4 7EX": {
    "lat": 51.175458,
    "lng": -1.784223,
    "region": "South West",
    "admin_district": "Wiltshire"
  },
  "GL1 3EJ": {
    "lat": 51.868017,
    "lng": -2.239485,
    "region": "South West",
    "admin_district": "Gloucester"
  },
  "SP2 0HE": {
    "lat": 51.08114,
    "lng": -1.86248,
    "region": "South West",
    "admin_district": "Wiltshire"
  },
  "HX4 8BL": {
    "lat": 53.683385,
    "lng": -1.860353,
    "region": "Yorkshire and The Humber",
    "admin_district": "Calderdale"
  },
  "ME15 6SB": {
    "lat": 51.268399,
    "lng": 0.522286,
    "region": "South East",
    "admin_district": "Maidstone"
  },
  "WS7 3XG": {
    "lat": 52.674113,
    "lng": -1.933769,
    "region": "West Midlands",
    "admin_district": "Lichfield"
  },
  "NR30 1QS": {
    "lat": 52.616832,
    "lng": 1.724141,
    "region": "East of England",
    "admin_district": "Great Yarmouth"
  },
  "CA17 4RB": {
    "lat": 54.474727,
    "lng": -2.350139,
    "region": "North West",
    "admin_district": "Westmorland and Furness"
  },
  "LS27 7HR": {
    "lat": 53.755089,
    "lng": -1.633108,
    "region": "Yorkshire and The Humber",
    "admin_district": "Leeds"
  },
  "DH8 6DP": {
    "lat": 54.86057,
    "lng": -1.805999,
    "region": "North East",
    "admin_district": "County Durham"
  },
  "CR4 2AG": {
    "lat": 51.415578,
    "lng": -0.153442,
    "region": "London",
    "admin_district": "Merton"
  },
  "BN17 5JR": {
    "lat": 50.806531,
    "lng": -0.537624,
    "region": "South East",
    "admin_district": "Arun"
  },
  "HU3 3SW": {
    "lat": 53.735121,
    "lng": -0.371588,
    "region": "Yorkshire and The Humber",
    "admin_district": "Kingston upon Hull, City of"
  },
  "KT9 2BP": {
    "lat": 51.364746,
    "lng": -0.287563,
    "region": "London",
    "admin_district": "Kingston upon Thames"
  },
  "CV23 0LU": {
    "lat": 52.412297,
    "lng": -1.361411,
    "region": "West Midlands",
    "admin_district": "Rugby"
  },
  "PO4 8QW": {
    "lat": 50.799146,
    "lng": -1.05443,
    "region": "South East",
    "admin_district": "Portsmouth"
  },
  "DE23 8FL": {
    "lat": 52.913094,
    "lng": -1.471141,
    "region": "East Midlands",
    "admin_district": "Derby"
  },
  "L18 1LG": {
    "lat": 53.388721,
    "lng": -2.912403,
    "region": "North West",
    "admin_district": "Liverpool"
  },
  "N13 4DR": {
    "lat": 51.624655,
    "lng": -0.101523,
    "region": "London",
    "admin_district": "Enfield"
  },
  "TS20 2BL": {
    "lat": 54.578002,
    "lng": -1.311038,
    "region": "North East",
    "admin_district": "Stockton-on-Tees"
  },
  "CV35 8SA": {
    "lat": 52.282852,
    "lng": -1.62301,
    "region": "West Midlands",
    "admin_district": "Warwick"
  },
  "SW10 0LR": {
    "lat": 51.482653,
    "lng": -0.178042,
    "region": "London",
    "admin_district": "Kensington and Chelsea"
  },
  "WF6 2EH": {
    "lat": 53.700813,
    "lng": -1.410435,
    "region": "Yorkshire and The Humber",
    "admin_district": "Wakefield"
  },
  "NG7 7FF": {
    "lat": 52.980045,
    "lng": -1.172672,
    "region": "East Midlands",
    "admin_district": "Nottingham"
  },
  "SE1 8EE": {
    "lat": 51.505365,
    "lng": -0.10575,
    "region": "London",
    "admin_district": "Southwark"
  },
  "TQ1 3SL": {
    "lat": 50.479335,
    "lng": -3.516962,
    "region": "South West",
    "admin_district": "Torbay"
  },
  "W4 1QU": {
    "lat": 51.493991,
    "lng": -0.254821,
    "region": "London",
    "admin_district": "Hounslow"
  },
  "HG1 4HE": {
    "lat": 54.004713,
    "lng": -1.535381,
    "region": "Yorkshire and The Humber",
    "admin_district": "North Yorkshire"
  },
  "W4 5PY": {
    "lat": 51.494045,
    "lng": -0.279784,
    "region": "London",
    "admin_district": "Hounslow"
  },
  "S43 3NW": {
    "lat": 53.257788,
    "lng": -1.365119,
    "region": "East Midlands",
    "admin_district": "Chesterfield"
  },
  "CT4 6UH": {
    "lat": 51.151866,
    "lng": 1.109108,
    "region": "South East",
    "admin_district": "Folkestone and Hythe"
  },
  "B44 9ER": {
    "lat": 52.552454,
    "lng": -1.895827,
    "region": "West Midlands",
    "admin_district": "Birmingham"
  },
  "SR6 0AB": {
    "lat": 54.913143,
    "lng": -1.381668,
    "region": "North East",
    "admin_district": "Sunderland"
  },
  "WA4 6QA": {
    "lat": 53.380496,
    "lng": -2.589492,
    "region": "North West",
    "admin_district": "Warrington"
  },
  "CV6 6EE": {
    "lat": 52.449925,
    "lng": -1.486043,
    "region": "West Midlands",
    "admin_district": "Coventry"
  },
  "SN10 1LQ": {
    "lat": 51.352284,
    "lng": -1.98903,
    "region": "South West",
    "admin_district": "Wiltshire"
  },
  "BN7 1ED": {
    "lat": 50.871296,
    "lng": -0.00628,
    "region": "South East",
    "admin_district": "Lewes"
  },
  "WF2 0QW": {
    "lat": 53.712369,
    "lng": -1.529816,
    "region": "Yorkshire and The Humber",
    "admin_district": "Wakefield"
  },
  "B61 9LJ": {
    "lat": 52.367689,
    "lng": -2.06789,
    "region": "West Midlands",
    "admin_district": "Bromsgrove"
  },
  "WA13 9DB": {
    "lat": 53.382321,
    "lng": -2.48123,
    "region": "North West",
    "admin_district": "Warrington"
  },
  "LN4 1EH": {
    "lat": 53.222928,
    "lng": -0.476922,
    "region": "East Midlands",
    "admin_district": "North Kesteven"
  },
  "WF8 2SF": {
    "lat": 53.684032,
    "lng": -1.30768,
    "region": "Yorkshire and The Humber",
    "admin_district": "Wakefield"
  },
  "L39 3LY": {
    "lat": 53.566902,
    "lng": -2.893735,
    "region": "North West",
    "admin_district": "West Lancashire"
  },
  "MK40 3QH": {
    "lat": 52.137391,
    "lng": -0.456381,
    "region": "East of England",
    "admin_district": "Bedford"
  },
  "DA12 1EJ": {
    "lat": 51.441111,
    "lng": 0.372143,
    "region": "South East",
    "admin_district": "Gravesham"
  },
  "E14 9SN": {
    "lat": 51.501485,
    "lng": -0.020064,
    "region": "London",
    "admin_district": "Tower Hamlets"
  },
  "EX3 0QT": {
    "lat": 50.681465,
    "lng": -3.439036,
    "region": "South West",
    "admin_district": "East Devon"
  },
  "S10 2DN": {
    "lat": 53.374531,
    "lng": -1.486251,
    "region": "Yorkshire and The Humber",
    "admin_district": "Sheffield"
  },
  "LS6 2BG": {
    "lat": 53.823823,
    "lng": -1.566397,
    "region": "Yorkshire and The Humber",
    "admin_district": "Leeds"
  },
  "WN2 4BJ": {
    "lat": 53.537489,
    "lng": -2.571272,
    "region": "North West",
    "admin_district": "Wigan"
  },
  "SL9 8HB": {
    "lat": 51.58864,
    "lng": -0.547458,
    "region": "South East",
    "admin_district": "Buckinghamshire"
  },
  "HU3 1DS": {
    "lat": 53.746195,
    "lng": -0.35507,
    "region": "Yorkshire and The Humber",
    "admin_district": "Kingston upon Hull, City of"
  },
  "EX7 0BU": {
    "lat": 50.58335,
    "lng": -3.461892,
    "region": "South West",
    "admin_district": "Teignbridge"
  },
  "EX1 3TF": {
    "lat": 50.72026,
    "lng": -3.495716,
    "region": "South West",
    "admin_district": "Exeter"
  },
  "TN40 1JG": {
    "lat": 50.840098,
    "lng": 0.478858,
    "region": "South East",
    "admin_district": "Rother"
  },
  "CH63 7RX": {
    "lat": 53.350243,
    "lng": -3.004812,
    "region": "North West",
    "admin_district": "Wirral"
  },
  "WF2 7GP": {
    "lat": 53.644775,
    "lng": -1.506727,
    "region": "Yorkshire and The Humber",
    "admin_district": "Wakefield"
  },
  "LS16 7FP": {
    "lat": 53.861791,
    "lng": -1.592964,
    "region": "Yorkshire and The Humber",
    "admin_district": "Leeds"
  },
  "CO6 4LA": {
    "lat": 51.972444,
    "lng": 0.86667,
    "region": "East of England",
    "admin_district": "Babergh"
  },
  "HD3 3DY": {
    "lat": 53.654322,
    "lng": -1.817449,
    "region": "Yorkshire and The Humber",
    "admin_district": "Kirklees"
  },
  "PE2 8AN": {
    "lat": 52.565183,
    "lng": -0.241346,
    "region": "East of England",
    "admin_district": "Peterborough"
  },
  "SW19 8JZ": {
    "lat": 51.426628,
    "lng": -0.190786,
    "region": "London",
    "admin_district": "Merton"
  },
  "CO5 0LJ": {
    "lat": 51.817985,
    "lng": 0.743135,
    "region": "East of England",
    "admin_district": "Colchester"
  },
  "W1K 5LS": {
    "lat": 51.513538,
    "lng": -0.150147,
    "region": "London",
    "admin_district": "Westminster"
  },
  "PL26 8JA": {
    "lat": 50.407363,
    "lng": -4.831488,
    "region": "South West",
    "admin_district": "Cornwall"
  },
  "GL15 6DN": {
    "lat": 51.710188,
    "lng": -2.554931,
    "region": "South West",
    "admin_district": "Forest of Dean"
  },
  "PR6 7PS": {
    "lat": 53.687942,
    "lng": -2.639614,
    "region": "North West",
    "admin_district": "Chorley"
  },
  "BH21 6RD": {
    "lat": 50.848924,
    "lng": -1.881615,
    "region": "South West",
    "admin_district": "Dorset"
  },
  "B31 2NQ": {
    "lat": 52.415273,
    "lng": -1.972162,
    "region": "West Midlands",
    "admin_district": "Birmingham"
  },
  "LA4 6NG": {
    "lat": 54.065658,
    "lng": -2.830642,
    "region": "North West",
    "admin_district": "Lancaster"
  },
  "NW3 1DR": {
    "lat": 51.559318,
    "lng": -0.178225,
    "region": "London",
    "admin_district": "Camden"
  },
  "TS8 0UJ": {
    "lat": 54.520354,
    "lng": -1.208717,
    "region": "North East",
    "admin_district": "Middlesbrough"
  },
  "DN21 3LG": {
    "lat": 53.446854,
    "lng": -0.71113,
    "region": "East Midlands",
    "admin_district": "West Lindsey"
  },
  "BA1 5UB": {
    "lat": 51.389226,
    "lng": -2.357308,
    "region": "South West",
    "admin_district": "Bath and North East Somerset"
  },
  "DN22 6FB": {
    "lat": 53.324356,
    "lng": -0.943319,
    "region": "East Midlands",
    "admin_district": "Bassetlaw"
  },
  "WF13 4DU": {
    "lat": 53.696826,
    "lng": -1.653849,
    "region": "Yorkshire and The Humber",
    "admin_district": "Kirklees"
  },
  "DL3 9HH": {
    "lat": 54.540139,
    "lng": -1.592896,
    "region": "North East",
    "admin_district": "Darlington"
  },
  "SP1 2JA": {
    "lat": 51.066894,
    "lng": -1.787997,
    "region": "South West",
    "admin_district": "Wiltshire"
  },
  "HA5 3TD": {
    "lat": 51.601683,
    "lng": -0.39456,
    "region": "London",
    "admin_district": "Harrow"
  },
  "SK3 9AB": {
    "lat": 53.402613,
    "lng": -2.163602,
    "region": "North West",
    "admin_district": "Stockport"
  },
  "PL1 4BT": {
    "lat": 50.375155,
    "lng": -4.173581,
    "region": "South West",
    "admin_district": "Plymouth"
  },
  "SW4 8JP": {
    "lat": 51.451908,
    "lng": -0.135209,
    "region": "London",
    "admin_district": "Lambeth"
  },
  "DE45 1SP": {
    "lat": 53.246162,
    "lng": -1.617821,
    "region": "East Midlands",
    "admin_district": "Derbyshire Dales"
  },
  "DE15 9AR": {
    "lat": 52.792388,
    "lng": -1.623539,
    "region": "West Midlands",
    "admin_district": "East Staffordshire"
  },
  "DE13 8PD": {
    "lat": 52.768002,
    "lng": -1.793169,
    "region": "West Midlands",
    "admin_district": "East Staffordshire"
  },
  "NN16 0EB": {
    "lat": 52.399888,
    "lng": -0.719034,
    "region": "East Midlands",
    "admin_district": "North Northamptonshire"
  },
  "SK17 9BA": {
    "lat": 53.252041,
    "lng": -1.922337,
    "region": "East Midlands",
    "admin_district": "High Peak"
  },
  "B14 7AJ": {
    "lat": 52.43787,
    "lng": -1.889845,
    "region": "West Midlands",
    "admin_district": "Birmingham"
  },
  "HD9 4BW": {
    "lat": 53.591434,
    "lng": -1.844293,
    "region": "Yorkshire and The Humber",
    "admin_district": "Kirklees"
  },
  "S60 2DH": {
    "lat": 53.426484,
    "lng": -1.354322,
    "region": "Yorkshire and The Humber",
    "admin_district": "Rotherham"
  },
  "B70 0XA": {
    "lat": 52.528216,
    "lng": -2.01814,
    "region": "West Midlands",
    "admin_district": "Sandwell"
  },
  "PR5 5XU": {
    "lat": 53.720825,
    "lng": -2.681332,
    "region": "North West",
    "admin_district": "South Ribble"
  },
  "BR3 5PA": {
    "lat": 51.406638,
    "lng": -0.013193,
    "region": "London",
    "admin_district": "Bromley"
  },
  "ST11 9HL": {
    "lat": 52.969796,
    "lng": -2.079768,
    "region": "West Midlands",
    "admin_district": "Stafford"
  },
  "PL25 3NP": {
    "lat": 50.336739,
    "lng": -4.767258,
    "region": "South West",
    "admin_district": "Cornwall"
  },
  "TA4 4QE": {
    "lat": 51.161416,
    "lng": -3.318688,
    "region": "South West",
    "admin_district": "Somerset"
  },
  "NW2 4DJ": {
    "lat": 51.544382,
    "lng": -0.214559,
    "region": "London",
    "admin_district": "Brent"
  },
  "GU22 7XL": {
    "lat": 51.315469,
    "lng": -0.555958,
    "region": "South East",
    "admin_district": "Woking"
  },
  "L13 3BJ": {
    "lat": 53.417342,
    "lng": -2.917063,
    "region": "North West",
    "admin_district": "Liverpool"
  },
  "YO12 4AT": {
    "lat": 54.27487,
    "lng": -0.414342,
    "region": "Yorkshire and The Humber",
    "admin_district": "North Yorkshire"
  },
  "SG19 2DE": {
    "lat": 52.138866,
    "lng": -0.258281,
    "region": "East of England",
    "admin_district": "Central Bedfordshire"
  },
  "B30 2JL": {
    "lat": 52.425706,
    "lng": -1.922184,
    "region": "West Midlands",
    "admin_district": "Birmingham"
  },
  "BN14 9RY": {
    "lat": 50.830664,
    "lng": -0.392182,
    "region": "South East",
    "admin_district": "Worthing"
  },
  "PE16 6EX": {
    "lat": 52.45744,
    "lng": 0.051873,
    "region": "East of England",
    "admin_district": "Fenland"
  },
  "CO4 9YE": {
    "lat": 51.909193,
    "lng": 0.917137,
    "region": "East of England",
    "admin_district": "Colchester"
  },
  "SE1 6JP": {
    "lat": 51.495618,
    "lng": -0.101933,
    "region": "London",
    "admin_district": "Southwark"
  },
  "RH19 3DZ": {
    "lat": 51.135069,
    "lng": -0.002873,
    "region": "South East",
    "admin_district": "Mid Sussex"
  },
  "SW19 2NE": {
    "lat": 51.415601,
    "lng": -0.183743,
    "region": "London",
    "admin_district": "Merton"
  },
  "TF9 3AL": {
    "lat": 52.90875,
    "lng": -2.485925,
    "region": "West Midlands",
    "admin_district": "Shropshire"
  },
  "WF12 9DW": {
    "lat": 53.673566,
    "lng": -1.630153,
    "region": "Yorkshire and The Humber",
    "admin_district": "Kirklees"
  },
  "WD17 4PN": {
    "lat": 51.664623,
    "lng": -0.402572,
    "region": "East of England",
    "admin_district": "Watford"
  },
  "WR8 0RR": {
    "lat": 52.063865,
    "lng": -2.201553,
    "region": "West Midlands",
    "admin_district": "Malvern Hills"
  },
  "TR18 3LT": {
    "lat": 50.126217,
    "lng": -5.528981,
    "region": "South West",
    "admin_district": "Cornwall"
  },
  "PO10 7BY": {
    "lat": 50.848819,
    "lng": -0.936858,
    "region": "South East",
    "admin_district": "Havant"
  },
  "SG17 5JD": {
    "lat": 52.029464,
    "lng": -0.320798,
    "region": "East of England",
    "admin_district": "Central Bedfordshire"
  },
  "N12 8TF": {
    "lat": 51.623132,
    "lng": -0.179614,
    "region": "London",
    "admin_district": "Barnet"
  },
  "WF13 4LN": {
    "lat": 53.696145,
    "lng": -1.639421,
    "region": "Yorkshire and The Humber",
    "admin_district": "Kirklees"
  },
  "BA6 8NH": {
    "lat": 51.142284,
    "lng": -2.652058,
    "region": "South West",
    "admin_district": "Somerset"
  },
  "NG5 7BP": {
    "lat": 53.005344,
    "lng": -1.130208,
    "region": "East Midlands",
    "admin_district": "Gedling"
  },
  "BN3 4ED": {
    "lat": 50.832644,
    "lng": -0.203025,
    "region": "South East",
    "admin_district": "Brighton and Hove"
  },
  "SE18 1SP": {
    "lat": 51.489337,
    "lng": 0.088224,
    "region": "London",
    "admin_district": "Greenwich"
  },
  "FY8 3RJ": {
    "lat": 53.759293,
    "lng": -3.003493,
    "region": "North West",
    "admin_district": "Fylde"
  },
  "SE16 2PE": {
    "lat": 51.492146,
    "lng": -0.049813,
    "region": "London",
    "admin_district": "Southwark"
  },
  "SN1 4EY": {
    "lat": 51.546116,
    "lng": -1.786889,
    "region": "South West",
    "admin_district": "Swindon"
  },
  "RM1 3NH": {
    "lat": 51.576142,
    "lng": 0.185232,
    "region": "London",
    "admin_district": "Havering"
  },
  "SE21 8SZ": {
    "lat": 51.436586,
    "lng": -0.091201,
    "region": "London",
    "admin_district": "Lambeth"
  },
  "GU14 6DA": {
    "lat": 51.274763,
    "lng": -0.750004,
    "region": "South East",
    "admin_district": "Rushmoor"
  },
  "SK16 4RG": {
    "lat": 53.470636,
    "lng": -2.100187,
    "region": "North West",
    "admin_district": "Tameside"
  },
  "LU7 1AR": {
    "lat": 51.918503,
    "lng": -0.664602,
    "region": "East of England",
    "admin_district": "Central Bedfordshire"
  },
  "NG17 7AE": {
    "lat": 53.101778,
    "lng": -1.248739,
    "region": "East Midlands",
    "admin_district": "Ashfield"
  },
  "SS0 8DU": {
    "lat": 51.537175,
    "lng": 0.68713,
    "region": "East of England",
    "admin_district": "Southend-on-Sea"
  },
  "EX39 4AU": {
    "lat": 51.01776,
    "lng": -4.200761,
    "region": "South West",
    "admin_district": "Torridge"
  },
  "DN4 7BQ": {
    "lat": 53.508578,
    "lng": -1.087769,
    "region": "Yorkshire and The Humber",
    "admin_district": "Doncaster"
  },
  "MK40 1HA": {
    "lat": 52.13861,
    "lng": -0.471945,
    "region": "East of England",
    "admin_district": "Bedford"
  },
  "BB10 1PD": {
    "lat": 53.801185,
    "lng": -2.243924,
    "region": "North West",
    "admin_district": "Burnley"
  },
  "YO19 6PW": {
    "lat": 53.830439,
    "lng": -1.061302,
    "region": "Yorkshire and The Humber",
    "admin_district": "North Yorkshire"
  },
  "IP4 1BN": {
    "lat": 52.05417,
    "lng": 1.156786,
    "region": "East of England",
    "admin_district": "Ipswich"
  },
  "ME20 7SE": {
    "lat": 51.295189,
    "lng": 0.47564,
    "region": "South East",
    "admin_district": "Tonbridge and Malling"
  },
  "SW6 5QE": {
    "lat": 51.477722,
    "lng": -0.198803,
    "region": "London",
    "admin_district": "Hammersmith and Fulham"
  },
  "SW18 5DS": {
    "lat": 51.441036,
    "lng": -0.200851,
    "region": "London",
    "admin_district": "Wandsworth"
  },
  "BA4 5TZ": {
    "lat": 51.187763,
    "lng": -2.553238,
    "region": "South West",
    "admin_district": "Somerset"
  },
  "BD6 3NL": null,
  "NE3 4NQ": {
    "lat": 55.003432,
    "lng": -1.639834,
    "region": "North East",
    "admin_district": "Newcastle upon Tyne"
  },
  "LS20 9EP": {
    "lat": 53.876373,
    "lng": -1.709027,
    "region": "Yorkshire and The Humber",
    "admin_district": "Leeds"
  },
  "BD21 3DR": {
    "lat": 53.868798,
    "lng": -1.908023,
    "region": "Yorkshire and The Humber",
    "admin_district": "Bradford"
  },
  "ME18 6AH": {
    "lat": 51.236784,
    "lng": 0.422774,
    "region": "South East",
    "admin_district": "Maidstone"
  },
  "TS10 1UA": {
    "lat": 54.616294,
    "lng": -1.073653,
    "region": "North East",
    "admin_district": "Redcar and Cleveland"
  },
  "IP4 5HT": null,
  "M12 4JE": {
    "lat": 53.460139,
    "lng": -2.204383,
    "region": "North West",
    "admin_district": "Manchester"
  },
  "S73 0AJ": {
    "lat": 53.522196,
    "lng": -1.39572,
    "region": "Yorkshire and The Humber",
    "admin_district": "Barnsley"
  },
  "IP19 8AY": {
    "lat": 52.343205,
    "lng": 1.501386,
    "region": "East of England",
    "admin_district": "East Suffolk"
  },
  "EX31 4RP": {
    "lat": 51.107058,
    "lng": -3.979042,
    "region": "South West",
    "admin_district": "North Devon"
  },
  "DN6 7SU": {
    "lat": 53.569217,
    "lng": -1.199868,
    "region": "Yorkshire and The Humber",
    "admin_district": "Doncaster"
  },
  "CA11 9FY": {
    "lat": 54.66332,
    "lng": -2.769068,
    "region": "North West",
    "admin_district": "Westmorland and Furness"
  },
  "B64 5JE": {
    "lat": 52.47671,
    "lng": -2.072108,
    "region": "West Midlands",
    "admin_district": "Sandwell"
  },
  "WA2 7JQ": {
    "lat": 53.392229,
    "lng": -2.596121,
    "region": "North West",
    "admin_district": "Warrington"
  },
  "OX7 5EE": {
    "lat": 51.93559,
    "lng": -1.542883,
    "region": "South East",
    "admin_district": "West Oxfordshire"
  },
  "SY3 6DU": {
    "lat": 52.69643,
    "lng": -2.775507,
    "region": "West Midlands",
    "admin_district": "Shropshire"
  },
  "CM7 5JN": {
    "lat": 51.900936,
    "lng": 0.553135,
    "region": "East of England",
    "admin_district": "Braintree"
  },
  "IP11 7HW": {
    "lat": 51.965294,
    "lng": 1.357758,
    "region": "East of England",
    "admin_district": "East Suffolk"
  },
  "SS15 5PT": {
    "lat": 51.575613,
    "lng": 0.42283,
    "region": "East of England",
    "admin_district": "Basildon"
  },
  "N1 9JH": {
    "lat": 51.532228,
    "lng": -0.11418,
    "region": "London",
    "admin_district": "Islington"
  },
  "ME5 7TD": {
    "lat": 51.35494,
    "lng": 0.534649,
    "region": "South East",
    "admin_district": "Medway"
  },
  "DE15 9QD": {
    "lat": 52.785542,
    "lng": -1.624903,
    "region": "West Midlands",
    "admin_district": "East Staffordshire"
  },
  "HR2 6JT": {
    "lat": 52.041007,
    "lng": -2.692556,
    "region": "West Midlands",
    "admin_district": "Herefordshire, County of"
  },
  "IP28 7EG": {
    "lat": 52.343523,
    "lng": 0.510173,
    "region": "East of England",
    "admin_district": "West Suffolk"
  },
  "PE10 9NE": {
    "lat": 52.768144,
    "lng": -0.378995,
    "region": "East Midlands",
    "admin_district": "South Kesteven"
  },
  "TS6 6HF": null,
  "DL6 2NQ": {
    "lat": 54.349119,
    "lng": -1.440158,
    "region": "Yorkshire and The Humber",
    "admin_district": "North Yorkshire"
  },
  "EN3 7XU": {
    "lat": 51.674548,
    "lng": -0.022144,
    "region": "London",
    "admin_district": "Enfield"
  },
  "LE2 6FQ": {
    "lat": 52.601507,
    "lng": -1.117108,
    "region": "East Midlands",
    "admin_district": "Leicester"
  },
  "B14 5NG": {
    "lat": 52.405441,
    "lng": -1.887676,
    "region": "West Midlands",
    "admin_district": "Birmingham"
  },
  "CR8 2JD": {
    "lat": 51.346289,
    "lng": -0.117831,
    "region": "London",
    "admin_district": "Sutton"
  },
  "RH2 7QS": {
    "lat": 51.217869,
    "lng": -0.199539,
    "region": "South East",
    "admin_district": "Reigate and Banstead"
  },
  "CM15 0NJ": {
    "lat": 51.666706,
    "lng": 0.295215,
    "region": "East of England",
    "admin_district": "Brentwood"
  },
  "PE1 4DS": {
    "lat": 52.58307,
    "lng": -0.231907,
    "region": "East of England",
    "admin_district": "Peterborough"
  },
  "LE3 0PD": {
    "lat": 52.625569,
    "lng": -1.15214,
    "region": "East Midlands",
    "admin_district": "Leicester"
  },
  "WV1 4EG": {
    "lat": 52.588355,
    "lng": -2.134403,
    "region": "West Midlands",
    "admin_district": "Wolverhampton"
  },
  "SY5 7PP": {
    "lat": 52.598925,
    "lng": -2.754783,
    "region": "West Midlands",
    "admin_district": "Shropshire"
  },
  "RH19 4LX": {
    "lat": 51.118716,
    "lng": -0.024898,
    "region": "South East",
    "admin_district": "Mid Sussex"
  },
  "PR8 6QE": {
    "lat": 53.640138,
    "lng": -2.995414,
    "region": "North West",
    "admin_district": "Sefton"
  },
  "BB1 6AR": {
    "lat": 53.750673,
    "lng": -2.481321,
    "region": "North West",
    "admin_district": "Blackburn with Darwen"
  },
  "S21 4BF": {
    "lat": 53.311607,
    "lng": -1.352333,
    "region": "East Midlands",
    "admin_district": "North East Derbyshire"
  },
  "TS6 6TD": {
    "lat": 54.571137,
    "lng": -1.168043,
    "region": "North East",
    "admin_district": "Redcar and Cleveland"
  },
  "IP11 9PU": {
    "lat": 51.968059,
    "lng": 1.36392,
    "region": "East of England",
    "admin_district": "East Suffolk"
  },
  "E10 5JP": {
    "lat": 51.56353,
    "lng": -0.014382,
    "region": "London",
    "admin_district": "Waltham Forest"
  },
  "PE21 0JW": {
    "lat": 52.977944,
    "lng": -0.011669,
    "region": "East Midlands",
    "admin_district": "Boston"
  },
  "IP1 6TJ": {
    "lat": 52.088961,
    "lng": 1.136802,
    "region": "East of England",
    "admin_district": "Mid Suffolk"
  },
  "HG1 4HG": {
    "lat": 54.006036,
    "lng": -1.535762,
    "region": "Yorkshire and The Humber",
    "admin_district": "North Yorkshire"
  },
  "L23 6UG": {
    "lat": 53.493334,
    "lng": -3.0502,
    "region": "North West",
    "admin_district": "Sefton"
  },
  "SS8 7NU": {
    "lat": 51.515362,
    "lng": 0.605167,
    "region": "East of England",
    "admin_district": "Castle Point"
  },
  "SO14 6UQ": {
    "lat": 50.921409,
    "lng": -1.400536,
    "region": "South East",
    "admin_district": "Southampton"
  },
  "GU15 3YL": {
    "lat": 51.326425,
    "lng": -0.76192,
    "region": "South East",
    "admin_district": "Surrey Heath"
  },
  "CT9 2TR": {
    "lat": 51.382678,
    "lng": 1.406326,
    "region": "South East",
    "admin_district": "Thanet"
  },
  "PL15 8LR": {
    "lat": 50.681478,
    "lng": -4.435801,
    "region": "South West",
    "admin_district": "Cornwall"
  },
  "S70 9GG": {
    "lat": 53.551636,
    "lng": -1.482799,
    "region": "Yorkshire and The Humber",
    "admin_district": "Barnsley"
  },
  "NN8 2QA": {
    "lat": 52.28805,
    "lng": -0.695019,
    "region": "East Midlands",
    "admin_district": "North Northamptonshire"
  },
  "LA11 7JS": {
    "lat": 54.174337,
    "lng": -2.968984,
    "region": "North West",
    "admin_district": "Westmorland and Furness"
  },
  "NE62 5XE": {
    "lat": 55.161776,
    "lng": -1.5607,
    "region": "North East",
    "admin_district": "Northumberland"
  },
  "PO14 2PE": {
    "lat": 50.818788,
    "lng": -1.213229,
    "region": "South East",
    "admin_district": "Fareham"
  },
  "IG1 4RE": {
    "lat": 51.566619,
    "lng": 0.077723,
    "region": "London",
    "admin_district": "Redbridge"
  },
  "RM6 4AE": {
    "lat": 51.574372,
    "lng": 0.123825,
    "region": "London",
    "admin_district": "Redbridge"
  },
  "PE2 5YQ": {
    "lat": 52.551615,
    "lng": -0.303571,
    "region": "East of England",
    "admin_district": "Peterborough"
  },
  "NE1 4PA": {
    "lat": 54.973217,
    "lng": -1.620809,
    "region": "North East",
    "admin_district": "Newcastle upon Tyne"
  },
  "PO6 3DP": {
    "lat": 50.845791,
    "lng": -1.068729,
    "region": "South East",
    "admin_district": "Portsmouth"
  },
  "BB1 6PH": {
    "lat": 53.758683,
    "lng": -2.467261,
    "region": "North West",
    "admin_district": "Blackburn with Darwen"
  },
  "SO14 6TE": {
    "lat": 50.919505,
    "lng": -1.402851,
    "region": "South East",
    "admin_district": "Southampton"
  },
  "GL52 7YU": {
    "lat": 51.955038,
    "lng": -2.071598,
    "region": "South West",
    "admin_district": "Tewkesbury"
  },
  "IP9 2QS": {
    "lat": 51.983829,
    "lng": 1.158345,
    "region": "East of England",
    "admin_district": "Babergh"
  },
  "TS10 5SH": {
    "lat": 54.593335,
    "lng": -1.088119,
    "region": "North East",
    "admin_district": "Redcar and Cleveland"
  },
  "PR25 2LB": {
    "lat": 53.69428,
    "lng": -2.694291,
    "region": "North West",
    "admin_district": "South Ribble"
  },
  "RG40 3RB": {
    "lat": 51.376328,
    "lng": -0.856308,
    "region": "South East",
    "admin_district": "Wokingham"
  },
  "BH6 3SY": {
    "lat": 50.724298,
    "lng": -1.815472,
    "region": "South West",
    "admin_district": "Bournemouth, Christchurch and Poole"
  },
  "B28 8JG": {
    "lat": 52.43487,
    "lng": -1.843916,
    "region": "West Midlands",
    "admin_district": "Birmingham"
  },
  "NN18 8LX": {
    "lat": 52.470844,
    "lng": -0.712501,
    "region": "East Midlands",
    "admin_district": "North Northamptonshire"
  },
  "DY5 3DY": {
    "lat": 52.482563,
    "lng": -2.124199,
    "region": "West Midlands",
    "admin_district": "Dudley"
  },
  "ME1 2NU": {
    "lat": 51.372608,
    "lng": 0.50933,
    "region": "South East",
    "admin_district": "Medway"
  },
  "N20 9EZ": {
    "lat": 51.629603,
    "lng": -0.169009,
    "region": "London",
    "admin_district": "Barnet"
  },
  "TS18 2DX": {
    "lat": 54.568662,
    "lng": -1.30889,
    "region": "North East",
    "admin_district": "Stockton-on-Tees"
  },
  "LE2 8FD": {
    "lat": 52.605863,
    "lng": -1.142153,
    "region": "East Midlands",
    "admin_district": "Leicester"
  },
  "DL16 7SG": {
    "lat": 54.695274,
    "lng": -1.608522,
    "region": "North East",
    "admin_district": "County Durham"
  },
  "SK2 7NA": {
    "lat": 53.387293,
    "lng": -2.12985,
    "region": "North West",
    "admin_district": "Stockport"
  },
  "PE11 3AS": {
    "lat": 52.76715,
    "lng": -0.173218,
    "region": "East Midlands",
    "admin_district": "South Holland"
  },
  "DY10 3RT": {
    "lat": 52.422211,
    "lng": -2.218451,
    "region": "West Midlands",
    "admin_district": "Wyre Forest"
  },
  "L22 3XG": {
    "lat": 53.474997,
    "lng": -3.020066,
    "region": "North West",
    "admin_district": "Sefton"
  },
  "NE8 4DP": {
    "lat": 54.956406,
    "lng": -1.601666,
    "region": "North East",
    "admin_district": "Gateshead"
  },
  "B64 7HU": {
    "lat": 52.470594,
    "lng": -2.061396,
    "region": "West Midlands",
    "admin_district": "Sandwell"
  },
  "CA7 3HP": {
    "lat": 54.765226,
    "lng": -3.332625,
    "region": "North West",
    "admin_district": "Cumberland"
  },
  "TS22 5JF": {
    "lat": 54.61104,
    "lng": -1.300371,
    "region": "North East",
    "admin_district": "Stockton-on-Tees"
  },
  "CR4 3DD": {
    "lat": 51.404179,
    "lng": -0.168595,
    "region": "London",
    "admin_district": "Merton"
  },
  "WA5 0BW": {
    "lat": 53.399051,
    "lng": -2.612203,
    "region": "North West",
    "admin_district": "Warrington"
  },
  "W3 8TF": {
    "lat": 51.501729,
    "lng": -0.272752,
    "region": "London",
    "admin_district": "Ealing"
  },
  "CO3 0RL": {
    "lat": 51.883281,
    "lng": 0.83743,
    "region": "East of England",
    "admin_district": "Colchester"
  },
  "B69 2DQ": {
    "lat": 52.505137,
    "lng": -2.029666,
    "region": "West Midlands",
    "admin_district": "Sandwell"
  },
  "NG7 5QG": {
    "lat": 52.962842,
    "lng": -1.176842,
    "region": "East Midlands",
    "admin_district": "Nottingham"
  },
  "NN10 6BB": {
    "lat": 52.294464,
    "lng": -0.617907,
    "region": "East Midlands",
    "admin_district": "North Northamptonshire"
  },
  "RG31 5PR": {
    "lat": 51.460405,
    "lng": -1.04195,
    "region": "South East",
    "admin_district": "Reading"
  },
  "ST16 3NG": {
    "lat": 52.815691,
    "lng": -2.11113,
    "region": "West Midlands",
    "admin_district": "Stafford"
  },
  "YO12 7QZ": {
    "lat": 54.288338,
    "lng": -0.408494,
    "region": "Yorkshire and The Humber",
    "admin_district": "North Yorkshire"
  },
  "BH11 8LL": {
    "lat": 50.755302,
    "lng": -1.927768,
    "region": "South West",
    "admin_district": "Bournemouth, Christchurch and Poole"
  },
  "TF10 7AT": {
    "lat": 52.768348,
    "lng": -2.378209,
    "region": "West Midlands",
    "admin_district": "Telford and Wrekin"
  },
  "SW12 9DY": {
    "lat": 51.452448,
    "lng": -0.147162,
    "region": "London",
    "admin_district": "Lambeth"
  },
  "SS0 7RQ": {
    "lat": 51.536393,
    "lng": 0.695319,
    "region": "East of England",
    "admin_district": "Southend-on-Sea"
  },
  "CB5 8LA": {
    "lat": 52.21354,
    "lng": 0.150715,
    "region": "East of England",
    "admin_district": "Cambridge"
  },
  "GL2 4NZ": {
    "lat": 51.834922,
    "lng": -2.275548,
    "region": "South West",
    "admin_district": "Gloucester"
  },
  "LE15 6DH": {
    "lat": 52.670333,
    "lng": -0.725594,
    "region": "East Midlands",
    "admin_district": "Rutland"
  },
  "SW16 6EX": {
    "lat": 51.422685,
    "lng": -0.129753,
    "region": "London",
    "admin_district": "Lambeth"
  },
  "LA9 4ED": {
    "lat": 54.326098,
    "lng": -2.747352,
    "region": "North West",
    "admin_district": "Westmorland and Furness"
  },
  "SR4 7YQ": {
    "lat": 54.906194,
    "lng": -1.402845,
    "region": "North East",
    "admin_district": "Sunderland"
  },
  "BN11 5RZ": {
    "lat": 50.815652,
    "lng": -0.404495,
    "region": "South East",
    "admin_district": "Worthing"
  },
  "M30 7BY": {
    "lat": 53.476647,
    "lng": -2.370454,
    "region": "North West",
    "admin_district": "Salford"
  },
  "B79 7SF": {
    "lat": 52.639857,
    "lng": -1.720031,
    "region": "West Midlands",
    "admin_district": "Tamworth"
  },
  "HD1 4PN": {
    "lat": 53.654386,
    "lng": -1.806525,
    "region": "Yorkshire and The Humber",
    "admin_district": "Kirklees"
  },
  "OX3 9BZ": {
    "lat": 51.766082,
    "lng": -1.214895,
    "region": "South East",
    "admin_district": "Oxford"
  },
  "SS0 7TA": {
    "lat": 51.536698,
    "lng": 0.688299,
    "region": "East of England",
    "admin_district": "Southend-on-Sea"
  },
  "TN39 4AU": {
    "lat": 50.852875,
    "lng": 0.470143,
    "region": "South East",
    "admin_district": "Rother"
  },
  "M46 9HJ": {
    "lat": 53.536109,
    "lng": -2.469635,
    "region": "North West",
    "admin_district": "Bolton"
  },
  "CR8 2LD": {
    "lat": 51.342006,
    "lng": -0.118222,
    "region": "London",
    "admin_district": "Croydon"
  },
  "L36 6ED": {
    "lat": 53.412805,
    "lng": -2.821581,
    "region": "North West",
    "admin_district": "Knowsley"
  },
  "HP1 3BY": {
    "lat": 51.790155,
    "lng": -0.509599,
    "region": "East of England",
    "admin_district": "Dacorum"
  },
  "CV37 6PP": {
    "lat": 52.193742,
    "lng": -1.713737,
    "region": "West Midlands",
    "admin_district": "Stratford-on-Avon"
  },
  "S2 1QU": {
    "lat": 53.373705,
    "lng": -1.427161,
    "region": "Yorkshire and The Humber",
    "admin_district": "Sheffield"
  },
  "DE3 9FJ": {
    "lat": 52.914301,
    "lng": -1.543533,
    "region": "East Midlands",
    "admin_district": "Derby"
  },
  "NE31 1YQ": {
    "lat": 54.977642,
    "lng": -1.501996,
    "region": "North East",
    "admin_district": "South Tyneside"
  },
  "E18 1AY": {
    "lat": 51.593833,
    "lng": 0.024606,
    "region": "London",
    "admin_district": "Redbridge"
  },
  "WF1 4DU": {
    "lat": 53.682233,
    "lng": -1.49068,
    "region": "Yorkshire and The Humber",
    "admin_district": "Wakefield"
  },
  "SE5 0SH": {
    "lat": 51.480722,
    "lng": -0.094976,
    "region": "London",
    "admin_district": "Southwark"
  },
  "S60 3PU": {
    "lat": 53.419294,
    "lng": -1.323525,
    "region": "Yorkshire and The Humber",
    "admin_district": "Rotherham"
  },
  "KT3 6AH": {
    "lat": 51.389064,
    "lng": -0.253512,
    "region": "London",
    "admin_district": "Kingston upon Thames"
  },
  "DH5 9JH": {
    "lat": 54.820202,
    "lng": -1.454039,
    "region": "North East",
    "admin_district": "Sunderland"
  },
  "SN4 0LT": {
    "lat": 51.512057,
    "lng": -1.734768,
    "region": "South West",
    "admin_district": "Swindon"
  },
  "TN15 7LE": {
    "lat": 51.342709,
    "lng": 0.332953,
    "region": "South East",
    "admin_district": "Sevenoaks"
  },
  "NN7 2EY": {
    "lat": 52.14721,
    "lng": -0.862141,
    "region": "East Midlands",
    "admin_district": "West Northamptonshire"
  },
  "NG5 1AP": {
    "lat": 52.970622,
    "lng": -1.155773,
    "region": "East Midlands",
    "admin_district": "Nottingham"
  },
  "SE18 3PS": {
    "lat": 51.479133,
    "lng": 0.066256,
    "region": "London",
    "admin_district": "Greenwich"
  },
  "CT14 9PW": {
    "lat": 51.218294,
    "lng": 1.384546,
    "region": "South East",
    "admin_district": "Dover"
  },
  "ST15 8LQ": {
    "lat": 52.909145,
    "lng": -2.158135,
    "region": "West Midlands",
    "admin_district": "Stafford"
  },
  "WV10 9TJ": {
    "lat": 52.601694,
    "lng": -2.110023,
    "region": "West Midlands",
    "admin_district": "Wolverhampton"
  },
  "B29 5HF": {
    "lat": 52.43734,
    "lng": -1.962013,
    "region": "West Midlands",
    "admin_district": "Birmingham"
  },
  "TA6 4SY": {
    "lat": 51.14212,
    "lng": -2.990447,
    "region": "South West",
    "admin_district": "Somerset"
  },
  "RH10 7QH": {
    "lat": 51.10739,
    "lng": -0.153421,
    "region": "South East",
    "admin_district": "Crawley"
  },
  "WR1 2RX": {
    "lat": 52.196417,
    "lng": -2.21522,
    "region": "West Midlands",
    "admin_district": "Worcester"
  },
  "TR1 3JE": {
    "lat": 50.264068,
    "lng": -5.058503,
    "region": "South West",
    "admin_district": "Cornwall"
  },
  "NE9 6JE": {
    "lat": 54.929755,
    "lng": -1.599494,
    "region": "North East",
    "admin_district": "Gateshead"
  },
  "CW4 7BB": {
    "lat": 53.200227,
    "lng": -2.35585,
    "region": "North West",
    "admin_district": "Cheshire East"
  },
  "TN22 1RJ": {
    "lat": 50.973176,
    "lng": 0.096949,
    "region": "South East",
    "admin_district": "Wealden"
  },
  "SN16 0AJ": {
    "lat": 51.586861,
    "lng": -2.101054,
    "region": "South West",
    "admin_district": "Wiltshire"
  },
  "NN3 6WL": {
    "lat": 52.278511,
    "lng": -0.8797,
    "region": "East Midlands",
    "admin_district": "West Northamptonshire"
  },
  "M8 5UU": {
    "lat": 53.511019,
    "lng": -2.22625,
    "region": "North West",
    "admin_district": "Manchester"
  },
  "SL4 5GG": {
    "lat": 51.481082,
    "lng": -0.624788,
    "region": "South East",
    "admin_district": "Windsor and Maidenhead"
  },
  "SG18 8UA": {
    "lat": 52.093209,
    "lng": -0.242701,
    "region": "East of England",
    "admin_district": "Central Bedfordshire"
  },
  "NN18 0TW": {
    "lat": 52.492492,
    "lng": -0.726436,
    "region": "East Midlands",
    "admin_district": "North Northamptonshire"
  },
  "GU33 7HZ": {
    "lat": 51.045786,
    "lng": -0.855578,
    "region": "South East",
    "admin_district": "East Hampshire"
  },
  "RM2 6JB": {
    "lat": 51.58466,
    "lng": 0.210541,
    "region": "London",
    "admin_district": "Havering"
  },
  "LS20 8AH": {
    "lat": 53.873449,
    "lng": -1.711252,
    "region": "Yorkshire and The Humber",
    "admin_district": "Leeds"
  },
  "RH11 8TY": {
    "lat": 51.107243,
    "lng": -0.216453,
    "region": "South East",
    "admin_district": "Crawley"
  },
  "LU5 5LD": {
    "lat": 51.905592,
    "lng": -0.512612,
    "region": "East of England",
    "admin_district": "Central Bedfordshire"
  },
  "BA21 3AQ": {
    "lat": 50.946029,
    "lng": -2.643327,
    "region": "South West",
    "admin_district": "Somerset"
  },
  "BN2 6UH": {
    "lat": 50.832728,
    "lng": -0.067527,
    "region": "South East",
    "admin_district": "Brighton and Hove"
  },
  "PR4 4QB": {
    "lat": 53.700425,
    "lng": -2.803861,
    "region": "North West",
    "admin_district": "South Ribble"
  },
  "NR13 6QQ": {
    "lat": 52.670244,
    "lng": 1.39595,
    "region": "East of England",
    "admin_district": "Broadland"
  },
  "TA9 3RH": {
    "lat": 51.195248,
    "lng": -2.995566,
    "region": "South West",
    "admin_district": "Somerset"
  },
  "RH11 0HL": {
    "lat": 51.123899,
    "lng": -0.216468,
    "region": "South East",
    "admin_district": "Crawley"
  },
  "B8 3SW": {
    "lat": 52.487504,
    "lng": -1.849048,
    "region": "West Midlands",
    "admin_district": "Birmingham"
  },
  "S64 8PT": {
    "lat": 53.486019,
    "lng": -1.30964,
    "region": "Yorkshire and The Humber",
    "admin_district": "Rotherham"
  },
  "CR0 7AG": {
    "lat": 51.384191,
    "lng": -0.06415,
    "region": "London",
    "admin_district": "Croydon"
  },
  "KT17 1SA": {
    "lat": 51.348855,
    "lng": -0.249095,
    "region": "South East",
    "admin_district": "Epsom and Ewell"
  },
  "GU14 6DQ": {
    "lat": 51.279887,
    "lng": -0.751586,
    "region": "South East",
    "admin_district": "Rushmoor"
  },
  "ST14 7FN": {
    "lat": 52.899307,
    "lng": -1.866431,
    "region": "West Midlands",
    "admin_district": "East Staffordshire"
  },
  "SL5 9PR": {
    "lat": 51.39533,
    "lng": -0.659557,
    "region": "South East",
    "admin_district": "Windsor and Maidenhead"
  },
  "B67 6AJ": {
    "lat": 52.490321,
    "lng": -1.970392,
    "region": "West Midlands",
    "admin_district": "Sandwell"
  },
  "E9 5TD": {
    "lat": 51.548067,
    "lng": -0.037672,
    "region": "London",
    "admin_district": "Hackney"
  },
  "RM3 8HW": {
    "lat": 51.595908,
    "lng": 0.216877,
    "region": "London",
    "admin_district": "Havering"
  },
  "BB12 7BS": {
    "lat": 53.791392,
    "lng": -2.311946,
    "region": "North West",
    "admin_district": "Burnley"
  },
  "GU35 0AY": {
    "lat": 51.110989,
    "lng": -0.863612,
    "region": "South East",
    "admin_district": "East Hampshire"
  },
  "GL53 9HD": {
    "lat": 51.880044,
    "lng": -2.072263,
    "region": "South West",
    "admin_district": "Cheltenham"
  },
  "ME16 8AU": {
    "lat": 51.273865,
    "lng": 0.506096,
    "region": "South East",
    "admin_district": "Maidstone"
  },
  "CW9 5HR": {
    "lat": 53.258219,
    "lng": -2.512183,
    "region": "North West",
    "admin_district": "Cheshire West and Chester"
  },
  "IP1 3ST": {
    "lat": 52.067248,
    "lng": 1.156046,
    "region": "East of England",
    "admin_district": "Ipswich"
  },
  "LN5 9HE": {
    "lat": 53.127633,
    "lng": -0.641676,
    "region": "East Midlands",
    "admin_district": "North Kesteven"
  },
  "HU3 3ED": {
    "lat": 53.736243,
    "lng": -0.364161,
    "region": "Yorkshire and The Humber",
    "admin_district": "Kingston upon Hull, City of"
  },
  "OL10 2AN": {
    "lat": 53.586631,
    "lng": -2.210673,
    "region": "North West",
    "admin_district": "Rochdale"
  },
  "KT23 3JH": {
    "lat": 51.286205,
    "lng": -0.382481,
    "region": "South East",
    "admin_district": "Mole Valley"
  },
  "LA18 4BY": {
    "lat": 54.208948,
    "lng": -3.268021,
    "region": "North West",
    "admin_district": "Cumberland"
  },
  "B33 0PE": {
    "lat": 52.477582,
    "lng": -1.767395,
    "region": "West Midlands",
    "admin_district": "Birmingham"
  },
  "IP3 9FJ": {
    "lat": 52.034601,
    "lng": 1.209902,
    "region": "East of England",
    "admin_district": "Ipswich"
  },
  "KT1 2TQ": {
    "lat": 51.401709,
    "lng": -0.30069,
    "region": "London",
    "admin_district": "Kingston upon Thames"
  },
  "HX3 0NR": {
    "lat": 53.708955,
    "lng": -1.859375,
    "region": "Yorkshire and The Humber",
    "admin_district": "Calderdale"
  },
  "B30 1TJ": {
    "lat": 52.431561,
    "lng": -1.94256,
    "region": "West Midlands",
    "admin_district": "Birmingham"
  },
  "NE2 2DJ": {
    "lat": 54.992567,
    "lng": -1.604717,
    "region": "North East",
    "admin_district": "Newcastle upon Tyne"
  },
  "W3 6NE": {
    "lat": 51.506406,
    "lng": -0.267892,
    "region": "London",
    "admin_district": "Ealing"
  },
  "CV22 6HS": {
    "lat": 52.355956,
    "lng": -1.271421,
    "region": "West Midlands",
    "admin_district": "Rugby"
  },
  "CT1 1RT": {
    "lat": 51.274394,
    "lng": 1.10265,
    "region": "South East",
    "admin_district": "Canterbury"
  },
  "HU12 0NB": {
    "lat": 53.683957,
    "lng": -0.015175,
    "region": "Yorkshire and The Humber",
    "admin_district": "East Riding of Yorkshire"
  },
  "SG19 1NL": {
    "lat": 52.124809,
    "lng": -0.292487,
    "region": "East of England",
    "admin_district": "Central Bedfordshire"
  },
  "WF13 4AD": {
    "lat": 53.703578,
    "lng": -1.648371,
    "region": "Yorkshire and The Humber",
    "admin_district": "Kirklees"
  },
  "TN22 3NJ": {
    "lat": 51.030702,
    "lng": 0.056273,
    "region": "South East",
    "admin_district": "Wealden"
  },
  "LS7 4SA": {
    "lat": 53.822652,
    "lng": -1.529814,
    "region": "Yorkshire and The Humber",
    "admin_district": "Leeds"
  },
  "KT16 9BA": {
    "lat": 51.388669,
    "lng": -0.507378,
    "region": "South East",
    "admin_district": "Runnymede"
  },
  "CV32 7SJ": {
    "lat": 52.302526,
    "lng": -1.517225,
    "region": "West Midlands",
    "admin_district": "Warwick"
  },
  "KT17 1BL": {
    "lat": 51.335926,
    "lng": -0.262579,
    "region": "South East",
    "admin_district": "Epsom and Ewell"
  },
  "BB5 3LJ": {
    "lat": 53.743273,
    "lng": -2.398983,
    "region": "North West",
    "admin_district": "Hyndburn"
  },
  "CB1 3NW": {
    "lat": 52.196095,
    "lng": 0.155155,
    "region": "East of England",
    "admin_district": "Cambridge"
  },
  "CO15 6EL": {
    "lat": 51.793787,
    "lng": 1.161491,
    "region": "East of England",
    "admin_district": "Tendring"
  },
  "FY1 2BU": {
    "lat": 53.823548,
    "lng": -3.054112,
    "region": "North West",
    "admin_district": "Blackpool"
  },
  "LN2 2UJ": {
    "lat": 53.284411,
    "lng": -0.448443,
    "region": "East Midlands",
    "admin_district": "West Lindsey"
  },
  "PO11 0HU": {
    "lat": 50.79236,
    "lng": -1.0019,
    "region": "South East",
    "admin_district": "Havant"
  },
  "DL10 4UB": {
    "lat": 54.411133,
    "lng": -1.732654,
    "region": "Yorkshire and The Humber",
    "admin_district": "North Yorkshire"
  },
  "CT6 5DJ": {
    "lat": 51.370759,
    "lng": 1.133521,
    "region": "South East",
    "admin_district": "Canterbury"
  },
  "L36 8DU": {
    "lat": 53.428312,
    "lng": -2.849588,
    "region": "North West",
    "admin_district": "Knowsley"
  },
  "B31 1QT": {
    "lat": 52.412774,
    "lng": -1.97578,
    "region": "West Midlands",
    "admin_district": "Birmingham"
  },
  "NE63 0NG": {
    "lat": 55.170898,
    "lng": -1.561024,
    "region": "North East",
    "admin_district": "Northumberland"
  },
  "BA15 2LE": {
    "lat": 51.346347,
    "lng": -2.291329,
    "region": "South West",
    "admin_district": "Wiltshire"
  },
  "DE13 7AS": {
    "lat": 52.733101,
    "lng": -1.745395,
    "region": "West Midlands",
    "admin_district": "Lichfield"
  },
  "CM2 7PY": {
    "lat": 51.725668,
    "lng": 0.482596,
    "region": "East of England",
    "admin_district": "Chelmsford"
  },
  "CW12 1JY": {
    "lat": 53.164189,
    "lng": -2.218768,
    "region": "North West",
    "admin_district": "Cheshire East"
  },
  "B37 7WB": {
    "lat": 52.477824,
    "lng": -1.728641,
    "region": "West Midlands",
    "admin_district": "Solihull"
  },
  "M14 5RE": {
    "lat": 53.453853,
    "lng": -2.221505,
    "region": "North West",
    "admin_district": "Manchester"
  },
  "S20 1HE": {
    "lat": 53.344121,
    "lng": -1.3364,
    "region": "Yorkshire and The Humber",
    "admin_district": "Sheffield"
  },
  "NR20 4DT": {
    "lat": 52.709892,
    "lng": 0.908404,
    "region": "East of England",
    "admin_district": "Breckland"
  },
  "DN19 7DQ": {
    "lat": 53.671201,
    "lng": -0.38297,
    "region": "Yorkshire and The Humber",
    "admin_district": "North Lincolnshire"
  },
  "CT4 5DX": {
    "lat": 51.267331,
    "lng": 1.125028,
    "region": "South East",
    "admin_district": "Canterbury"
  },
  "NE3 1RY": {
    "lat": 55.007405,
    "lng": -1.605338,
    "region": "North East",
    "admin_district": "Newcastle upon Tyne"
  },
  "NG5 6JE": {
    "lat": 53.001585,
    "lng": -1.134978,
    "region": "East Midlands",
    "admin_district": "Gedling"
  },
  "BN12 5DP": {
    "lat": 50.814631,
    "lng": -0.446165,
    "region": "South East",
    "admin_district": "Arun"
  },
  "EC2R 6LL": {
    "lat": 51.516419,
    "lng": -0.089206,
    "region": "London",
    "admin_district": "City of London"
  },
  "CM2 8RL": {
    "lat": 51.704378,
    "lng": 0.470792,
    "region": "East of England",
    "admin_district": "Chelmsford"
  },
  "DN41 7JB": {
    "lat": 53.577732,
    "lng": -0.171869,
    "region": "Yorkshire and The Humber",
    "admin_district": "North East Lincolnshire"
  },
  "GU3 1NE": {
    "lat": 51.20664,
    "lng": -0.583942,
    "region": "South East",
    "admin_district": "Guildford"
  },
  "PR4 1HD": {
    "lat": 53.753886,
    "lng": -2.85716,
    "region": "North West",
    "admin_district": "Fylde"
  },
  "SE26 6DN": {
    "lat": 51.425924,
    "lng": -0.057496,
    "region": "London",
    "admin_district": "Lewisham"
  },
  "OX7 6BQ": {
    "lat": 51.861781,
    "lng": -1.591611,
    "region": "South East",
    "admin_district": "West Oxfordshire"
  },
  "OX10 9JB": {
    "lat": 51.551412,
    "lng": -1.152033,
    "region": "South East",
    "admin_district": "South Oxfordshire"
  },
  "PL19 8QD": {
    "lat": 50.570935,
    "lng": -4.19765,
    "region": "South West",
    "admin_district": "West Devon"
  },
  "TA24 5UD": {
    "lat": 51.204182,
    "lng": -3.477745,
    "region": "South West",
    "admin_district": "Somerset"
  },
  "PR25 3EX": {
    "lat": 53.689509,
    "lng": -2.689215,
    "region": "North West",
    "admin_district": "South Ribble"
  },
  "E11 4PB": {
    "lat": 51.560667,
    "lng": 0.007985,
    "region": "London",
    "admin_district": "Waltham Forest"
  },
  "SE1 2RE": {
    "lat": 51.50416,
    "lng": -0.079748,
    "region": "London",
    "admin_district": "Southwark"
  },
  "LS17 8UB": {
    "lat": 53.853717,
    "lng": -1.519145,
    "region": "Yorkshire and The Humber",
    "admin_district": "Leeds"
  },
  "B30 2SH": {
    "lat": 52.433045,
    "lng": -1.913803,
    "region": "West Midlands",
    "admin_district": "Birmingham"
  },
  "B18 5ND": {
    "lat": 52.498317,
    "lng": -1.920923,
    "region": "West Midlands",
    "admin_district": "Birmingham"
  },
  "PE22 8AY": {
    "lat": 53.094343,
    "lng": 0.005161,
    "region": "East Midlands",
    "admin_district": "East Lindsey"
  },
  "EX22 7SY": {
    "lat": 50.901785,
    "lng": -4.38534,
    "region": "South West",
    "admin_district": "Torridge"
  },
  "SE18 3SH": {
    "lat": 51.480543,
    "lng": 0.069416,
    "region": "London",
    "admin_district": "Greenwich"
  },
  "CM77 8GR": {
    "lat": 51.86827,
    "lng": 0.579264,
    "region": "East of England",
    "admin_district": "Braintree"
  },
  "DE1 1UL": {
    "lat": 52.923296,
    "lng": -1.491782,
    "region": "East Midlands",
    "admin_district": "Derby"
  },
  "S70 4DE": {
    "lat": 53.545439,
    "lng": -1.473487,
    "region": "Yorkshire and The Humber",
    "admin_district": "Barnsley"
  },
  "LN3 5UD": {
    "lat": 53.209143,
    "lng": -0.328997,
    "region": "East Midlands",
    "admin_district": "West Lindsey"
  },
  "CA28 8AA": {
    "lat": 54.542931,
    "lng": -3.58042,
    "region": "North West",
    "admin_district": "Cumberland"
  },
  "PE1 3BF": {
    "lat": 52.587019,
    "lng": -0.245963,
    "region": "East of England",
    "admin_district": "Peterborough"
  },
  "PO20 8NY": {
    "lat": 50.764951,
    "lng": -0.859719,
    "region": "South East",
    "admin_district": "Chichester"
  },
  "LN1 2PQ": {
    "lat": 53.291885,
    "lng": -0.663556,
    "region": "East Midlands",
    "admin_district": "West Lindsey"
  },
  "NW3 7BJ": {
    "lat": 51.556707,
    "lng": -0.195453,
    "region": "London",
    "admin_district": "Camden"
  },
  "IP25 6HA": {
    "lat": 52.577961,
    "lng": 0.830737,
    "region": "East of England",
    "admin_district": "Breckland"
  },
  "LE10 0PR": {
    "lat": 52.535901,
    "lng": -1.374628,
    "region": "East Midlands",
    "admin_district": "Hinckley and Bosworth"
  },
  "CT20 1EU": {
    "lat": 51.080155,
    "lng": 1.175825,
    "region": "South East",
    "admin_district": "Folkestone and Hythe"
  },
  "NR19 1AE": {
    "lat": 52.678333,
    "lng": 0.9442,
    "region": "East of England",
    "admin_district": "Breckland"
  },
  "B43 7AP": {
    "lat": 52.558524,
    "lng": -1.936908,
    "region": "West Midlands",
    "admin_district": "Sandwell"
  },
  "SS11 7HR": {
    "lat": 51.619395,
    "lng": 0.530145,
    "region": "East of England",
    "admin_district": "Basildon"
  },
  "M24 2HR": {
    "lat": 53.550354,
    "lng": -2.189498,
    "region": "North West",
    "admin_district": "Rochdale"
  },
  "HP21 9LP": {
    "lat": 51.807313,
    "lng": -0.7999,
    "region": "South East",
    "admin_district": "Buckinghamshire"
  },
  "LS10 3TR": {
    "lat": 53.749446,
    "lng": -1.54666,
    "region": "Yorkshire and The Humber",
    "admin_district": "Leeds"
  },
  "NG16 5AB": {
    "lat": 53.036753,
    "lng": -1.313043,
    "region": "East Midlands",
    "admin_district": "Broxtowe"
  },
  "GL50 1EH": null,
  "MK6 5DL": {
    "lat": 52.021596,
    "lng": -0.748822,
    "region": "South East",
    "admin_district": "Milton Keynes"
  },
  "TA2 7PU": {
    "lat": 51.026088,
    "lng": -3.095572,
    "region": "South West",
    "admin_district": "Somerset"
  },
  "B78 1BN": {
    "lat": 52.622924,
    "lng": -1.615315,
    "region": "West Midlands",
    "admin_district": "North Warwickshire"
  },
  "E17 6QU": {
    "lat": 51.58767,
    "lng": -0.027998,
    "region": "London",
    "admin_district": "Waltham Forest"
  },
  "M2 3FU": {
    "lat": 53.480142,
    "lng": -2.245524,
    "region": "North West",
    "admin_district": "Manchester"
  },
  "IG3 8EX": {
    "lat": 51.566923,
    "lng": 0.094013,
    "region": "London",
    "admin_district": "Redbridge"
  },
  "DY8 4HF": {
    "lat": 52.467327,
    "lng": -2.15314,
    "region": "West Midlands",
    "admin_district": "Dudley"
  },
  "M9 4PG": {
    "lat": 53.510771,
    "lng": -2.2044,
    "region": "North West",
    "admin_district": "Manchester"
  },
  "CH49 5PE": {
    "lat": 53.36964,
    "lng": -3.096815,
    "region": "North West",
    "admin_district": "Wirral"
  },
  "LE3 9SX": {
    "lat": 52.651903,
    "lng": -1.183118,
    "region": "East Midlands",
    "admin_district": "Leicester"
  },
  "WF5 8BT": {
    "lat": 53.678721,
    "lng": -1.576894,
    "region": "Yorkshire and The Humber",
    "admin_district": "Wakefield"
  },
  "BH24 1JY": {
    "lat": 50.846123,
    "lng": -1.789483,
    "region": "South East",
    "admin_district": "New Forest"
  },
  "CM3 6AB": {
    "lat": 51.684988,
    "lng": 0.760334,
    "region": "East of England",
    "admin_district": "Maldon"
  },
  "CV37 8NE": {
    "lat": 52.156537,
    "lng": -1.701945,
    "region": "West Midlands",
    "admin_district": "Stratford-on-Avon"
  },
  "NG5 6HP": {
    "lat": 53.001533,
    "lng": -1.140135,
    "region": "East Midlands",
    "admin_district": "Gedling"
  },
  "SY13 1AD": {
    "lat": 52.969291,
    "lng": -2.681767,
    "region": "West Midlands",
    "admin_district": "Shropshire"
  },
  "LE65 2QL": {
    "lat": 52.752558,
    "lng": -1.479349,
    "region": "East Midlands",
    "admin_district": "North West Leicestershire"
  },
  "GL7 1QD": {
    "lat": 51.716252,
    "lng": -1.970054,
    "region": "South West",
    "admin_district": "Cotswold"
  },
  "SG1 1ER": {
    "lat": 51.900478,
    "lng": -0.20116,
    "region": "East of England",
    "admin_district": "Stevenage"
  },
  "SM7 1NG": {
    "lat": 51.327676,
    "lng": -0.219199,
    "region": "South East",
    "admin_district": "Reigate and Banstead"
  },
  "CO5 0HX": {
    "lat": 51.811905,
    "lng": 0.765009,
    "region": "East of England",
    "admin_district": "Colchester"
  },
  "CA10 1DQ": {
    "lat": 54.763777,
    "lng": -2.692582,
    "region": "North West",
    "admin_district": "Westmorland and Furness"
  },
  "BD18 4DH": {
    "lat": 53.835775,
    "lng": -1.796529,
    "region": "Yorkshire and The Humber",
    "admin_district": "Bradford"
  },
  "PO1 5LU": {
    "lat": 50.804107,
    "lng": -1.071928,
    "region": "South East",
    "admin_district": "Portsmouth"
  },
  "BN16 2HJ": {
    "lat": 50.806392,
    "lng": -0.506007,
    "region": "South East",
    "admin_district": "Arun"
  },
  "SL6 8BW": {
    "lat": 51.523341,
    "lng": -0.712364,
    "region": "South East",
    "admin_district": "Windsor and Maidenhead"
  },
  "KT6 4ER": {
    "lat": 51.392067,
    "lng": -0.316183,
    "region": "South East",
    "admin_district": "Elmbridge"
  },
  "IP1 3PA": {
    "lat": 52.062712,
    "lng": 1.14341,
    "region": "East of England",
    "admin_district": "Ipswich"
  },
  "B18 4BJ": {
    "lat": 52.490957,
    "lng": -1.939434,
    "region": "West Midlands",
    "admin_district": "Birmingham"
  },
  "KT9 1NA": {
    "lat": 51.364716,
    "lng": -0.308379,
    "region": "London",
    "admin_district": "Kingston upon Thames"
  },
  "HA3 9SN": {
    "lat": 51.580102,
    "lng": -0.288949,
    "region": "London",
    "admin_district": "Brent"
  },
  "WA11 8QL": {
    "lat": 53.49635,
    "lng": -2.784938,
    "region": "North West",
    "admin_district": "St. Helens"
  },
  "N15 6JR": {
    "lat": 51.57854,
    "lng": -0.072761,
    "region": "London",
    "admin_district": "Haringey"
  },
  "NG2 6HY": {
    "lat": 52.921392,
    "lng": -1.10955,
    "region": "East Midlands",
    "admin_district": "Rushcliffe"
  },
  "ME10 4NU": {
    "lat": 51.338283,
    "lng": 0.734984,
    "region": "South East",
    "admin_district": "Swale"
  },
  "PL6 8SE": {
    "lat": 50.410173,
    "lng": -4.087523,
    "region": "South West",
    "admin_district": "Plymouth"
  },
  "W1G 7HP": {
    "lat": 51.520391,
    "lng": -0.147347,
    "region": "London",
    "admin_district": "Westminster"
  },
  "ME8 6XQ": {
    "lat": 51.373869,
    "lng": 0.584135,
    "region": "South East",
    "admin_district": "Medway"
  },
  "BB4 5PU": {
    "lat": 53.706536,
    "lng": -2.325511,
    "region": "North West",
    "admin_district": "Rossendale"
  },
  "CO3 0RH": {
    "lat": 51.885511,
    "lng": 0.837832,
    "region": "East of England",
    "admin_district": "Colchester"
  },
  "CR3 5HH": {
    "lat": 51.297446,
    "lng": -0.092142,
    "region": "South East",
    "admin_district": "Tandridge"
  },
  "HA3 6AH": {
    "lat": 51.611989,
    "lng": -0.331426,
    "region": "London",
    "admin_district": "Harrow"
  },
  "CH43 2JX": {
    "lat": 53.383141,
    "lng": -3.048946,
    "region": "North West",
    "admin_district": "Wirral"
  },
  "RG14 6QN": {
    "lat": 51.382392,
    "lng": -1.342568,
    "region": "South East",
    "admin_district": "West Berkshire"
  },
  "HR1 2TQ": {
    "lat": 52.059077,
    "lng": -2.703293,
    "region": "West Midlands",
    "admin_district": "Herefordshire, County of"
  },
  "CB7 4FF": {
    "lat": 52.413748,
    "lng": 0.274519,
    "region": "East of England",
    "admin_district": "East Cambridgeshire"
  },
  "CM16 6BL": {
    "lat": 51.7116,
    "lng": 0.157101,
    "region": "East of England",
    "admin_district": "Epping Forest"
  },
  "CM3 3LL": {
    "lat": 51.787586,
    "lng": 0.477501,
    "region": "East of England",
    "admin_district": "Chelmsford"
  },
  "DT4 7PY": {
    "lat": 50.620435,
    "lng": -2.457223,
    "region": "South West",
    "admin_district": "Dorset"
  },
  "CR0 8NG": {
    "lat": 51.369777,
    "lng": -0.030248,
    "region": "London",
    "admin_district": "Croydon"
  },
  "NR1 2QJ": {
    "lat": 52.615235,
    "lng": 1.285123,
    "region": "East of England",
    "admin_district": "Norwich"
  },
  "RG45 7HU": {
    "lat": 51.364715,
    "lng": -0.79657,
    "region": "South East",
    "admin_district": "Bracknell Forest"
  },
  "SY5 9PQ": {
    "lat": 52.684547,
    "lng": -2.897562,
    "region": "West Midlands",
    "admin_district": "Shropshire"
  },
  "PL25 4HL": {
    "lat": 50.343136,
    "lng": -4.77515,
    "region": "South West",
    "admin_district": "Cornwall"
  },
  "SE9 3UL": {
    "lat": 51.436868,
    "lng": 0.073254,
    "region": "London",
    "admin_district": "Greenwich"
  },
  "KT4 8BA": {
    "lat": 51.382973,
    "lng": -0.239516,
    "region": "London",
    "admin_district": "Sutton"
  },
  "NG17 1DS": {
    "lat": 53.121705,
    "lng": -1.273018,
    "region": "East Midlands",
    "admin_district": "Ashfield"
  },
  "DY9 0RS": {
    "lat": 52.4428,
    "lng": -2.132885,
    "region": "West Midlands",
    "admin_district": "Dudley"
  },
  "HG3 1LH": {
    "lat": 53.961577,
    "lng": -1.534427,
    "region": "Yorkshire and The Humber",
    "admin_district": "North Yorkshire"
  },
  "CO7 7AZ": {
    "lat": 51.881836,
    "lng": 0.972723,
    "region": "East of England",
    "admin_district": "Tendring"
  },
  "BN21 2DW": {
    "lat": 50.774251,
    "lng": 0.28286,
    "region": "South East",
    "admin_district": "Eastbourne"
  },
  "WS3 3JP": {
    "lat": 52.61319,
    "lng": -2.000793,
    "region": "West Midlands",
    "admin_district": "Walsall"
  },
  "BS32 4SY": {
    "lat": 51.542199,
    "lng": -2.571328,
    "region": "South West",
    "admin_district": "South Gloucestershire"
  },
  "EN10 6FD": {
    "lat": 51.723263,
    "lng": -0.030299,
    "region": "East of England",
    "admin_district": "Broxbourne"
  },
  "FY7 8JH": {
    "lat": 53.901108,
    "lng": -3.044783,
    "region": "North West",
    "admin_district": "Wyre"
  },
  "PL3 4DT": {
    "lat": 50.380182,
    "lng": -4.165399,
    "region": "South West",
    "admin_district": "Plymouth"
  },
  "CR0 9UG": {
    "lat": 51.343918,
    "lng": -0.003355,
    "region": "London",
    "admin_district": "Croydon"
  },
  "W13 8SB": {
    "lat": 51.511142,
    "lng": -0.319031,
    "region": "London",
    "admin_district": "Ealing"
  },
  "RM7 9LD": {
    "lat": 51.575364,
    "lng": 0.165596,
    "region": "London",
    "admin_district": "Havering"
  },
  "ST15 8HL": {
    "lat": 52.907852,
    "lng": -2.150547,
    "region": "West Midlands",
    "admin_district": "Stafford"
  },
  "IP14 1AT": {
    "lat": 52.185093,
    "lng": 0.996272,
    "region": "East of England",
    "admin_district": "Mid Suffolk"
  },
  "GL4 6ED": {
    "lat": 51.832987,
    "lng": -2.221144,
    "region": "South West",
    "admin_district": "Gloucester"
  },
  "OX4 2QT": {
    "lat": 51.737817,
    "lng": -1.200728,
    "region": "South East",
    "admin_district": "Oxford"
  },
  "LE10 1UB": {
    "lat": 52.53759,
    "lng": -1.364283,
    "region": "East Midlands",
    "admin_district": "Hinckley and Bosworth"
  },
  "GL1 3DR": {
    "lat": 51.869937,
    "lng": -2.232582,
    "region": "South West",
    "admin_district": "Gloucester"
  },
  "EX39 1BJ": {
    "lat": 51.037926,
    "lng": -4.2329,
    "region": "South West",
    "admin_district": "Torridge"
  },